globaleventid,sqldate,ingest_time,eventcode,eventbasecode,eventrootcode,quadclass,numentions,numsources,numarticles,avgtone,actiongeo_fullname,actiongeo_countrycode,actiongeo_adm1code,actiongeo_adm2code,actiongeo_lat,actiongeo_lon,actiongeo_featureid,dateadded,sourceurl
1150133289,20231208,20240107000000,090,090,09,2,3,1,3,-1.34730538922156,"Colorado, United States",US,USCO,,39.0646,-105.327,CO,20240107000000,https://www.stltoday.com/news/local/government-politics/if-trump-is-kept-off-ballots-republican-states-could-bar-biden-too-missouris-ashcroft-says/article_e6159dc8-acba-11ee-beb3-6b54cc77d8ca.html
1150133292,20231208,20240107000000,061,061,06,2,4,1,4,3.93258426966292,China,CH,CH,,35,105,CH,20240107000000,https://www.khmertimeskh.com/501418879/466-million-from-rice-exports-in-2023/
1150133296,20231208,20240107000000,014,014,01,1,5,1,5,-4.53172205438067,"Kentucky, United States",US,USKY,,37.669,-84.6514,KY,20240107000000,https://www.stltoday.com/news/nation-world/government-politics/many-congress-republicans-who-blamed-trump-for-jan-6-capitol-attack-now-support-him/article_64c0f663-bd1b-59dd-8f9e-21ad7f88df48.html
1150133302,20231231,20240107000000,036,036,03,1,15,3,15,-1.11424852560845,"Michigan, United States",US,USMI,,43.3504,-84.5603,MI,20240107000000,https://www.kokomotribune.com/news/nation_world_news/michigan-republicans-vote-to-remove-election-denier-chair-karamo-who-promises-not-to-accept-result/article_ebc0617c-09ac-55b6-842b-99eaaf0f0a6e.html
1150133303,20231231,20240107000000,0241,024,02,1,12,3,12,-0.7380073800738,"Michigan, United States",US,USMI,,43.3504,-84.5603,MI,20240107000000,https://myfox28columbus.com/news/nation-world/michigan-gop-votes-to-remove-chairwoman-as-she-promises-not-to-accept-result-kristina-karamo-republican-party-county-chairs-politics-infighting-meeting
1150133305,20231231,20240107000000,036,036,03,1,6,3,6,-5.97574790561335,"Gaza, Israel (general), Israel",IS,IS00,18315,31.4167,34.3333,-797156,20240107000000,https://lancasteronline.com/news/world/hezbollah-israel-trade-heavy-cross-border-fire-as-blinken-seeks-to-prevent-regional-escalation/article_8a6e0500-2e7f-5b1c-bb6b-5b7ffee1cc04.html
1150133306,20231231,20240107000000,036,036,03,1,10,5,10,-7.16448032290615,"Gaza, Israel (general), Israel",IS,IS00,18315,31.4167,34.3333,-797156,20240107000000,https://www.tivysideadvertiser.co.uk/news/national/24032446.lebanon-based-hezbollah-israel-trade-heavy-cross-border-fire/
1150133308,20240107,20240107000000,036,036,03,1,4,1,4,-4.69441984056687,"Pretoria, Gauteng, South Africa",SF,SF06,77346,-25.7069,28.2294,-1273769,20240107000000,https://www.fox969.com/news/olympic-sprinter-oscar-pistorius-freed-on-parole-after-serving-nearly-9-years-for-girlfriends-murder/
1150133310,20240107,20240107000000,036,036,03,1,4,2,4,-4.02075226977951,Qatar,QA,QA,,25.5,51.25,QA,20240107000000,https://www.hartfordcitynewstimes.com/news/nation/blinken-says-he-wants-to-avoid-escalation-on-middle-east-tour/article_f53598d6-ca0f-56a1-a723-c13a9f90c18a.html
1150133312,20240107,20240107000000,042,042,04,1,10,1,10,13.986013986014,"Dubai, Dubayy, United Arab Emirates",AE,AE03,28575,25.2522,55.28,-782831,20240107000000,https://timesofindia.indiatimes.com/tv/news/hindi/erica-fernandes-and-shubhaavi-choksey-enjoy-quality-time-together-in-dubai-share-their-fun-moments-with-fans/articleshow/106598996.cms
1150133313,20240107,20240107000000,180,180,18,4,8,1,8,-9.24731182795702,"Benapole, Khulna, Bangladesh",BG,BG82,70293,23.048,88.9077,-2713246,20240107000000,"https://www.albd.org/articles/news/41247/Benapole-Express-tragedy-reminiscent-of-2013-2014-violence,-raises-serious-concerns-about-their-impact-on-democratic-process"
1150133314,20240107,20240107000000,042,042,04,1,1,1,1,3.96825396825397,Bulgaria,BU,BU,,43,25,BU,20240107000000,https://en.vietnamplus.vn/parliamentary-cooperation-important-pillar-in-vietnambulgaria-ties/275864.vnp
1150133316,20240107,20240107000000,042,042,04,1,2,1,2,-0.62713797035348,"La Paz County, Arizona, United States",US,USAZ,,33.6256,-113.876,43540,20240107000000,https://tucson.com/news/state-regional/government-politics/arizona-legislature-2024-issues-water-housing-teacher-pay-abortion/article_9f97c56c-abf0-11ee-bb47-87a4336fe300.html
1150133317,20240107,20240107000000,043,043,04,1,1,1,1,0.59642147117296,"Sao Paulo, SãPaulo, Brazil",BR,BR27,11543,-23.5333,-46.6167,-671824,20240107000000,https://www.mmafighting.com/2024/1/6/24024992/mayra-bueno-silva-happy-to-finally-fight-in-front-of-a-ufc-crowd-again-after-5-years-thats-priceless
1150133319,20240107,20240107000000,043,043,04,1,2,1,2,-4.21974522292994,"Rafah, Shamal Sina', Egypt",EG,EG27,16446,31.2878,34.2369,-301033,20240107000000,https://borneobulletin.com.bn/desperate-time-desperate-measures/
1150133321,20240107,20240107000000,043,043,04,1,20,4,20,-2.45533277444296,"Alaska, United States",US,USAK,,61.385,-152.268,AK,20240107000000,https://www.kens5.com/article/news/nation-world/alaska-airlines-hole-depressurization-boeing-max-grounding/507-4e5d927a-708f-499e-afb9-c13e861ee654
1150133322,20240107,20240107000000,051,051,05,1,10,1,10,3.20769847634323,"Diboll, Texas, United States",US,USTX,TX005,31.1871,-94.781,1381758,20240107000000,https://www.chron.com/culture/article/town-wants-named-quincea-era-capital-texas-18593536.php
1150133323,20240107,20240107000000,036,036,03,1,10,2,10,-0.57142857142858,"Revelstoke, British Columbia, Canada",CA,CA02,12546,51,-118.183,-572192,20240107000000,https://www.wltribune.com/news/crews-search-for-helicopter-that-crashed-east-of-revelstoke-7293470
1150133325,20240107,20240107000000,042,042,04,1,10,1,10,-2.10378681626929,China,CH,CH,,35,105,CH,20240107000000,https://www.opednews.com/articles/Apple-Should-Settle-with-M-Apple-Ceo-Tim-Cook_Corona-Virus-Patent-Holders_Patents-Trademarks-Copyrights_Rights_-Copyright-Patent-Trademark-240106-624.html
1150133326,20240107,20240107000000,043,043,04,1,6,1,6,-10.1139601139601,"Bedford, New Hampshire, United States",US,USNH,NH011,42.9465,-71.5159,865503,20240107000000,https://www.lowellsun.com/2024/01/06/pelham-nh-woman-sentenced-to-prison-for-stealing-elderly-victims-identity/
1150133328,20240107,20240107000000,042,042,04,1,2,1,2,-7.37704918032787,"Florida, United States",US,USFL,,27.8333,-81.717,FL,20240107000000,https://jamaica-gleaner.com/article/news/20240106/cubans-charged-illegal-entry-remanded
1150133329,20240107,20240107000000,020,020,02,1,10,1,10,-2.26904376012965,"Tumut, New South Wales, Australia",AS,AS02,154639,-35.3002,148.225,-1605905,20240107000000,https://www.cairnspost.com.au/entertainment/australian-comedian-rosie-waterland-reveals-mother-lisa-stevens-has-died/news-story/2430a009c1dd7c8252c2bb3f5df3b1a9?nk=09bc6a8ecac937668199a5e90c40e2a7-1704584771
1150133330,20240107,20240107000000,036,036,03,1,10,1,10,3.98009950248756,,,,,,,,20240107000000,https://www.khmertimeskh.com/501418881/phnom-sampov-bat-cave-attracting-more-tourists/
1150133331,20240107,20240107000000,051,051,05,1,6,1,6,-0.22675736961452,"Columbus, Ohio, United States",US,USOH,OH049,39.9612,-82.9988,1080996,20240107000000,https://myfox28columbus.com/news/local/mayor-ginther-focused-on-community-safety-for-next-term-columbus-central-ohio-january-2024-andrew-ginther-cosi-greyhound-barons
1150133332,20240107,20240107000000,051,051,05,1,25,5,25,-3.85987573118446,"Minnesota, United States",US,USMN,,45.7326,-93.9196,MN,20240107000000,https://www.sfgate.com/news/article/death-toll-from-minnesota-home-fire-rises-to-18593570.php
1150133333,20240107,20240107000000,014,014,01,1,6,1,6,-2.96875,"Iowa, United States",US,USIA,,42.0046,-93.214,IA,20240107000000,https://www.fox969.com/news/iowa-principal-critically-injured-in-school-shooting-risked-himself-to-protect-students-police-say/
1150133334,20240107,20240107000000,020,020,02,1,6,1,6,0.36363636363636,"Zaria, Kaduna, Nigeria",NI,NI23,22834,11.1132,7.72518,-2032065,20240107000000,https://www.vanguardngr.com/2024/01/degree-mills-why-it-is-difficult-for-govt-officials-to-spot-them-ex-nuc-scribe/
1150133336,20240107,20240107000000,040,040,04,1,6,1,6,-1.3986013986014,"Iowa, United States",US,USIA,,42.0046,-93.214,IA,20240107000000,https://www.middletownpress.com/news/article/11-year-old-killed-in-iowa-school-shooting-18593239.php
1150133339,20240107,20240107000000,043,043,04,1,7,1,7,1.34228187919463,"Tulsa, Oklahoma, United States",US,USOK,OK143,36.154,-95.9928,1100962,20240107000000,http://www.bigcountry995.com/story/6599ae96aa2a700657bb8023/tps-hosts-enrollment-expo-for-families-to-learn-about-district
1150133340,20240107,20240107000000,051,051,05,1,5,1,5,2.8116213683224,"Solano County, California, United States",US,USCA,,38.2332,-121.951,277312,20240107000000,https://www.thereporter.com/2024/01/06/mychal-threets-works-to-spread-library-joy/
1150133341,20240107,20240107000000,190,190,19,4,6,3,6,-2.58620689655173,"Dallas County, Iowa, United States",US,USIA,,41.6833,-94.0502,465213,20240107000000,https://fox23maine.com/news/nation-world/11-year-old-killed-in-iowa-school-shooting-identified-total-of-7-others-injured-ahmir-jolliff-perry-high-school-dylan-butler-pump-action-shotgun-small-caliber-handgun-disturbing-tiktoks-deadly-rampage
1150133342,20240107,20240107000000,042,042,04,1,2,1,2,-0.68292682926829,"Cairo, Al Qahirah, Egypt",EG,EG11,65350,30.05,31.25,-290692,20240107000000,https://www.middletownpress.com/news/world/article/cumbersome-process-and-arbitrary-israeli-18593319.php
1150133343,20240107,20240107000000,042,042,04,1,19,3,19,-0.699822020653974,"Rafah, Shamal Sina', Egypt",EG,EG27,16446,31.2878,34.2369,-301033,20240107000000,https://www.news4jax.com/news/world/2024/01/06/cumbersome-process-and-arbitrary-israeli-inspections-slow-aid-delivery-into-gaza-us-senators-say/
1150133345,20240107,20240107000000,0234,023,02,1,8,1,8,-2.50260688216893,"Ossetia, Russia (general), Russia",RS,RS00,25097,42.75,44,-2975503,20240107000000,https://www.heritage.org/europe/report/preventing-russian-georgian-military-confrontation
1150133346,20240107,20240107000000,016,016,01,1,2,1,2,-1.21546961325967,"Sandringham, Norfolk, United Kingdom",UK,UKI9,40122,52.8333,0.516667,-2607088,20240107000000,https://www.dailymail.co.uk/debate/article-12934417/SARAH-VINE-solve-problem-like-Prince-Andrew.html
1150133351,20240107,20240107000000,020,020,02,1,5,1,5,0,Nigeria,NI,NI,,10,8,NI,20240107000000,https://www.vanguardngr.com/2024/01/tinubu-minimum-wage-its-n200000-or-nlc-raises-negotiation-team-labour-president-lists-conditions/
1150133352,20240107,20240107000000,036,036,03,1,10,1,10,6.59340659340659,,,,,,,,20240107000000,https://www.potomaclocal.com/2024/01/06/on-small-business-saturdays-we-shop-local-2-2/
1150133354,20240107,20240107000000,036,036,03,1,10,1,10,4.90998363338789,"Kogi, Nigeria (general), Nigeria",NI,NI00,190990,12.55,6.63333,-2015590,20240107000000,https://www.vanguardngr.com/2024/01/im-leaving-kogi-better-than-i-met-it-gov-bello-claims/
1150133355,20240107,20240107000000,040,040,04,1,10,1,10,0.78602620087336,"Karnataka, Karnataka, India",IN,IN19,17688,13.5,76,-2099860,20240107000000,https://indianexpress.com/article/political-pulse/more-deputy-cms-in-karnataka-pro-siddaramaiah-ministers-huddle-dials-up-cong-churn-before-ls-polls-9098274/
1150133357,20240107,20240107000000,040,040,04,1,8,1,8,-4.33839479392625,"New York, United States",US,USNY,,42.1497,-74.9384,NY,20240107000000,https://www.infowars.com/posts/jack-smith-prosecutor-discouraged-fbi-from-investigating-clinton-foundation-in-2016/
1150133359,20240107,20240107000000,040,040,04,1,6,2,6,-3.74531835205993,"Texas, United States",US,USTX,,31.106,-97.6475,TX,20240107000000,https://fox23maine.com/news/nation-world/asylum-case-backlog-soars-amid-immigration-surge-pandemic-setbacks-migrant-crisis-southern-border-asylum-hearings-el-paso-texas-court-system-title-42-trump-biden-administrations
1150133360,20240107,20240107000000,043,043,04,1,3,1,3,-5.2,"Minsk, Belarus (general), Belarus",BO,BO00,5840,53.9,27.5667,-1946324,20240107000000,https://www.heritage.org/europe/report/flawed-presidential-elections-belarus-how-the-west-should-respond
1150133363,20240107,20240107000000,043,043,04,1,2,1,2,3.08370044052863,"Akron, Ohio, United States",US,USOH,OH153,41.0814,-81.519,1064305,20240107000000,https://wysu.org/ohio-news/2024-01-06/a-historic-day-akrons-new-mayor-shammas-malik-sworn-in-as-citys-63rd-mayor
1150133365,20240107,20240107000000,046,046,04,1,10,1,10,-0.14619883040935,"Alaska, United States",US,USAK,,61.385,-152.268,AK,20240107000000,https://www.telegraph.co.uk/business/2024/01/06/boeing-737-grounded-united-states-plane-window/
1150133366,20240107,20240107000000,080,080,08,2,10,1,10,0.82644628099173,,,,,,,,20240107000000,https://avenuemail.in/jamshedpur-deceased-tata-motors-employees-son-granted-permanent-job/
1150133370,20240107,20240107000000,042,042,04,1,5,1,5,-9.23076923076923,"Dallas, Texas, United States",US,USTX,TX113,32.7831,-96.8067,1380944,20240107000000,https://www.kens5.com/article/news/local/woman-dead-baby-critical-after-crash-on-i-30-with-off-duty-officer-dallas-deputies-say/287-ba918367-d115-4bed-8e2c-989c2ed364c7
1150133371,20240107,20240107000000,043,043,04,1,32,4,32,-5.03958262649386,Indonesia,ID,ID,,-5,120,ID,20240107000000,https://www.staradvertiser.com/2024/01/06/breaking-news/boeing-faces-new-questions-about-737-max-after-alaska-air-blowout/
1150133372,20240107,20240107000000,043,043,04,1,6,1,6,-1.4336917562724,"Bhopal, Madhya Pradesh, India",IN,IN35,17746,23.2667,77.4,-2091670,20240107000000,https://www.indiablooms.com/news-details/N/94138/madhya-pradesh-police-locates-all-26-girls-missing-from-children-s-home-in-bhopal.html
1150133373,20240107,20240107000000,173,173,17,4,3,1,3,-10.1754385964913,"Abadan, Khuzestan, Iran",IR,IR15,36787,30.3392,48.3043,-3051014,20240107000000,http://www.jordantimes.com/news/region/iran-says-death-toll-daesh-twin-bombings-rises-91
1150133374,20240107,20240107000000,042,042,04,1,4,1,4,-9.74358974358972,"Gaza, Israel (general), Israel",IS,IS00,18315,31.4167,34.3333,-797156,20240107000000,https://www.winnipegfreepress.com/world/2024/01/06/protesters-calling-for-cease-fire-in-israel-hamas-war-block-traffic-in-seattle
1150133375,20240107,20240107000000,111,111,11,3,9,1,9,-5.63324268770666,"Gaza, Israel (general), Israel",IS,IS00,18315,31.4167,34.3333,-797156,20240107000000,https://www.telegraph.co.uk/news/2024/01/06/israel-woke-up-to-islamist-terror-while-west-remains-asleep/
1150133376,20240107,20240107000000,130,130,13,3,5,1,5,-6.57276995305164,"Gaza, Israel (general), Israel",IS,IS00,18315,31.4167,34.3333,-797156,20240107000000,https://www.usnews.com/news/world/articles/2024-01-06/eu-foreign-policy-chief-warns-against-lebanon-getting-dragged-into-conflict
1150133378,20240107,20240107000000,046,046,04,1,10,1,10,0.90909090909091,,,,,,,,20240107000000,https://www.shacknews.com/article/138197/weekend-discussion-january-6-2024
1150133379,20240107,20240107000000,020,020,02,1,65,2,65,-5.36763745592268,,,,,,,,20240107000000,https://mix999fm.iheart.com/content/2024-01-06-cher-believes-declined-conservatorship-over-son-is-life-or-death/
1150133380,20240107,20240107000000,020,020,02,1,6,1,6,-6.92746536267319,"Washington, District of Columbia, United States",US,USDC,DC001,38.8951,-77.0364,531871,20240107000000,https://www.kten.com/story/50304531/it-may-be-a-long-time-if-ever-before-everyone-involved-in-january-6-is-punished-heres-why
1150133384,20240107,20240107000000,042,042,04,1,4,1,4,2.57731958762887,Cambodia,CB,CB,,13,105,CB,20240107000000,https://www.khmertimeskh.com/501418887/general-science-announces-255-million-expansion-plan-in-cambodia/
1150133385,20240107,20240107000000,190,190,19,4,3,1,3,-6.6759388038943,"Seoul, Soul-t'ukpyolsi, South Korea",KS,KS11,24984,37.5664,127,-716583,20240107000000,http://www.jordantimes.com/news/world/north%C2%A0korea%C2%A0fires-artillery-shells-near-south%C2%A0korean-islands
1150133386,20240107,20240107000000,036,036,03,1,6,1,6,1.13207547169811,"White House, District of Columbia, United States",US,USDC,,38.8951,-77.0364,531871,20240107000000,https://www.kitv.com/news/national/biden-to-deliver-state-of-the-union-speech-on-march-7/article_0c747131-9dfa-5bd1-bd0c-761e556e99cd.html
1150133387,20240107,20240107000000,040,040,04,1,10,1,10,0.79681274900398,"Hawaii, United States",US,USHI,,21.1098,-157.531,HI,20240107000000,https://www.kitv.com/news/lahaina/lawmakers-discuss-plans-to-house-thousands-of-fire-survivors-waiting-for-long-term-lodging/article_c604ee6c-ac5b-11ee-b271-dfac183aa5ee.html
1150133388,20240107,20240107000000,042,042,04,1,10,1,10,1.06382978723405,China,CH,CH,,35,105,CH,20240107000000,https://www.phonearena.com/news/two-variants-snapdragon-8-gen-3-for-galaxy-powering-s24-ultra_id154083
1150133389,20240107,20240107000000,043,043,04,1,5,1,5,5.23415977961432,"Ninh Binh, Ninh Bì, Vietnam, Republic Of",VM,VM59,74165,20.2539,105.975,-3724181,20240107000000,https://www.khmertimeskh.com/501418885/association-continues-efforts-to-contribute-to-vietnam-cambodia-ties/
1150133390,20240107,20240107000000,043,043,04,1,9,3,9,-0.175685543890243,Serbia,RI,RI,,44,21,RI,20240107000000,https://www.staradvertiser.com/2024/01/06/breaking-news/orthodox-mark-christmas-but-celebration-overshadowed-by-conflict/
1150133391,20240107,20240107000000,046,046,04,1,2,1,2,-2.70758122743682,"Missoula, Montana, United States",US,USMT,MT063,46.8721,-113.994,787504,20240107000000,https://963theblaze.com/ixp/119/p/missoula-couple-500-fentanyl/
1150133393,20240107,20240107000000,020,020,02,1,10,1,10,-7.98816568047337,,,,,,,,20240107000000,https://www.dailytelegraph.com.au/news/breaking-news/devastating-father-dies-in-drowning-tragedy/news-story/7c2be68a55be13a914634ba6a253479b?nk=a89fefaa059dd355288a0a2e7e01604b-1704584787
1150133394,20240107,20240107000000,036,036,03,1,2,1,2,1.29449838187703,"Mountain View, California, United States",US,USCA,,34.5064,-117.359,246299,20240107000000,https://www.funkytaurusmedia.com/shop_content.php?coID=2&XTCsid=oi2eml74058p1vu7i6tf038bt5
1150133396,20240107,20240107000000,042,042,04,1,60,6,60,0.58139534883721,"Hollywood, California, United States",US,USCA,CA037,34.0983,-118.327,1660757,20240107000000,https://myq1075.com/ixp/252/p/potential-glee-revival-details/
1150133397,20240107,20240107000000,043,043,04,1,5,1,5,-0.746268656716418,"Dhaka, Dhaka, Bangladesh",BG,BG81,5778,23.7231,90.4086,-2737683,20240107000000,https://www.indiablooms.com/world-details/SA/41461/bangladesh-all-set-for-sunday-s-general-elections.html
1150133399,20240107,20240107000000,090,090,09,2,6,1,6,-2.85035629453682,"New York, United States",US,USNY,,42.1497,-74.9384,NY,20240107000000,https://www.telegraph.co.uk/world-news/2024/01/06/ghislaine-maxwell-ordered-search-email-prince-andrew/
1150133400,20240107,20240107000000,111,111,11,3,10,1,10,-6.18066561014263,,,,,,,,20240107000000,https://www.dailymail.co.uk/news/article-12934029/Father-Molly-Russell-warns-parents-beware-Character-AI-chatbot-mocks-young-people-depressive-thoughts.html
1150133403,20240107,20240107000000,040,040,04,1,10,1,10,-4.7979797979798,"Kabul, Kabol, Afghanistan",AF,AF13,3580,34.5167,69.1833,-3378435,20240107000000,https://tolonews.com/afghanistan-186846
1150133404,20240107,20240107000000,042,042,04,1,4,1,4,3.04761904761905,"Calabar, Cross River, Nigeria",NI,NI22,191378,4.9517,8.322,-2003575,20240107000000,https://www.vanguardngr.com/2024/01/we-feel-special-connected-five-african-american-women-trace-roots-back-to-calabar/
1150133407,20240107,20240107000000,042,042,04,1,10,1,10,3.73134328358208,"Wellington, New Zealand (general), New Zealand",NZ,NZ00,22391,-41.3,174.783,-1521348,20240107000000,https://newswire.co.nz/2014/12/watch-wellington-is-open-for-christmas/
1150133409,20240107,20240107000000,042,042,04,1,2,1,2,-7.01262272089761,"Rafah, Gaza Strip (general), Gaza Strip",GZ,GZ00,16446,31.3292,34.2311,10420173,20240107000000,http://www.jordantimes.com/news/region/israel-bombs%C2%A0gaza%C2%A0after-un-warns-territory-uninhabitable
1150133410,20240107,20240107000000,042,042,04,1,10,1,10,-10.4712041884817,"Gaza, Israel (general), Israel",IS,IS00,18315,31.4167,34.3333,-797156,20240107000000,https://www.sandiegouniontribune.com/news/nation-world/story/2024-01-06/protesters-calling-for-cease-fire-in-israel-hamas-war-block-traffic-in-seattle
1150133413,20240107,20240107000000,051,051,05,1,6,1,6,-3.20366132723112,"Whitehall, Orkney Islands, United Kingdom",UK,UKV9,40174,59.15,-2.61667,-2611570,20240107000000,https://www.telegraph.co.uk/authors/s/sp-st/stephen-pollard/
1150133420,20240107,20240107000000,120,120,12,3,2,1,2,0.96952908587257,"United States Capitol, District of Columbia, United States",US,USDC,,38.8898,-77.0089,531844,20240107000000,https://www.kens5.com/article/news/local/dc/harry-dunn-capitol-police-congress-campaign/65-9c31b66b-dd8c-4a3d-8c88-79148a301cae
1150133422,20240107,20240107000000,051,051,05,1,2,2,2,-0.172619224926275,"Belgrade, Serbia (general),",RB,RB00,47629,44.8186,20.4681,-74897,20240107000000,https://www.sandiegouniontribune.com/news/nation-world/story/2024-01-06/orthodox-mark-christmas-but-the-celebration-is-overshadowed-for-many-by-conflict
1150133428,20240107,20240107000000,043,043,04,1,10,1,10,2.18340611353712,Russia,RS,RS,,60,100,RS,20240107000000,https://www.phonearena.com/news/samsung-galaxy-a72-android-14-update_id154071
1150133432,20240107,20240107000000,190,190,19,4,4,2,4,-5.53505535055351,"Belgorod, Belgorodskaya Oblast', Russia",RS,RS09,25036,50.6107,36.5802,-2883930,20240107000000,https://www.staradvertiser.com/2024/01/06/breaking-news/russian-shelling-kills-11-as-ukraine-says-it-hit-a-crimean-air-base/
1150133436,20240107,20240107000000,020,020,02,1,10,1,10,-9.4017094017094,"Columbus, Ohio, United States",US,USOH,OH049,39.9612,-82.9988,1080996,20240107000000,https://myfox28columbus.com/news/local/juvenile-comes-to-hospital-with-gunshot-wound-authorities-investigating-columbus-police-linden-shooting-gunshots-violent-crime-felony-assault-central-ohio-crime-stoppers
1150133437,20240107,20240107000000,020,020,02,1,4,1,4,-0.14144271570014,"Illinois, United States",US,USIL,,40.3363,-89.0022,IL,20240107000000,https://www.huffpost.com/entry/trump-omits-customary-illinois-pledge-to-not-overthrow-government-report_n_6599bc25e4b0f9f6621ce844
1150133442,20240107,20240107000000,036,036,03,1,2,1,2,-0.16233766233767,"Poway, California, United States",US,USCA,CA073,32.9628,-117.036,1661258,20240107000000,https://www.sandiegouniontribune.com/news/military/story/2024-01-06/documentary-films-midway-screening-annapolis-rings
1150133445,20240107,20240107000000,036,036,03,1,10,1,10,2.95857988165681,"Brooklyn, Michigan, United States",US,USMI,MI075,42.1059,-84.2483,622035,20240107000000,https://www.funkytaurusmedia.com/product_info.php?info=p50_funky-taurus-----george-clinton-----ufo-brooklyn---------exclusiv.html&XTCsid=oi2eml74058p1vu7i6tf038bt5
1150133448,20240107,20240107000000,040,040,04,1,4,1,4,-2.25225225225225,"Dutchtown Elementary School, Georgia, United States",US,USGA,,33.467,-84.2521,2546204,20240107000000,https://news.yahoo.com/school-district-says-no-findings-225700688.html
1150133449,20240107,20240107000000,040,040,04,1,10,1,10,-0.87336244541484,"Texas, United States",US,USTX,,31.106,-97.6475,TX,20240107000000,https://liteonline.com/ixp/659/p/idaho-driving-laws-babies-nursing/
1150133450,20240107,20240107000000,042,042,04,1,2,1,2,-8.10810810810811,"Cincinnati, Ohio, United States",US,USOH,OH061,39.162,-84.4569,1066650,20240107000000,https://www.fox19.com/2024/01/06/police-1-man-critical-condition-early-morning-hit-skip-crash/
1150133451,20240107,20240107000000,042,042,04,1,2,1,2,9.87654320987654,"Columbus, Ohio, United States",US,USOH,OH049,39.9612,-82.9988,1080996,20240107000000,https://myfox28columbus.com/news/local/white-castle-to-mark-valentines-day-with-a-special-tradition-love-castle-february-events-romantic-dinner-sliders-fast-food-fun-events
1150133452,20240107,20240107000000,042,042,04,1,10,1,10,-1.58102766798419,"Portland International Airport, Oregon, United States",US,USOR,,45.589,-122.593,1131689,20240107000000,https://www.wflx.com/2024/01/06/faa-grounds-boeing-737-max-9-after-plane-wall-detached-midair-oregon/
1150133454,20240107,20240107000000,042,042,04,1,2,2,2,-2.65502645114157,"Dallas, Texas, United States",US,USTX,TX113,32.7831,-96.8067,1380944,20240107000000,https://www.knopnews2.com/2024/01/06/alaska-airlines-plane-window-blows-out-mid-air-forcing-emergency-landing/
1150133455,20240107,20240107000000,042,042,04,1,6,1,6,4.16666666666666,"Hollywood, California, United States",US,USCA,CA037,34.0983,-118.327,1660757,20240107000000,https://pagesix.com/2024/01/06/entertainment/jodie-foster-faces-backlash-after-calling-gen-z-really-annoying/
1150133457,20240107,20240107000000,042,042,04,1,30,3,30,-2.62257696693273,"Fort Lauderdale, Florida, United States",US,USFL,,26.1223,-80.1434,282693,20240107000000,https://www.yakimaherald.com/news/nation_and_world/business/federal-officials-order-grounding-of-some-boeing-737-max-9-jetliners-after-plane-suffers-a/article_a1eeeb5f-f2c0-51c7-9831-0c2c2c63d373.html
1150133458,20240107,20240107000000,042,042,04,1,21,1,10,8.46153846153846,"Chicago, Illinois, United States",US,USIL,IL031,41.85,-87.6501,423587,20240107000000,https://news.yahoo.com/jacksonville-man-selected-winner-unique-232542159.html
1150133460,20240107,20240107000000,042,042,04,1,2,1,2,-2.5062656641604,"White House, District of Columbia, United States",US,USDC,,38.8951,-77.0364,531871,20240107000000,https://www.foxnews.com/media/social-media-mocks-biden-being-led-offstage-first-lady
1150133461,20240107,20240107000000,042,042,04,1,44,7,44,-2.54922339052393,"Alaska, United States",US,USAK,,61.385,-152.268,AK,20240107000000,https://www.keighleynews.co.uk/news/national/24032388.us-officials-order-grounding-boeing-737-9-max-jetliners-blowout/
1150133464,20240107,20240107000000,042,042,04,1,12,2,12,0.950244010396359,"Texas, United States",US,USTX,,31.106,-97.6475,TX,20240107000000,https://gator995.com/ixp/156/p/who-owns-the-most-land-in-texas/
1150133465,20240107,20240107000000,042,042,04,1,3,1,3,-2.83400809716599,United Kingdom,UK,UK,,54,-4,UK,20240107000000,https://www.vaildaily.com/news/examining-jeffrey-epsteins-vail-connections-following-new-revelations/
1150133466,20240107,20240107000000,042,042,04,1,4,1,4,-2.95602018745494,"Virginia, United States",US,USVA,,37.768,-78.2057,VA,20240107000000,https://www.dailymail.co.uk/news/article-12934165/Megyn-Kelly-jeffrey-epstein-speaking-directly-sex-offender.html
1150133470,20240107,20240107000000,043,043,04,1,8,1,8,-5.17241379310345,"San Diego, California, United States",US,USCA,,32.7153,-117.157,1661377,20240107000000,https://www.fox29.com/news/woman-missing-for-nearly-a-decade-found-stuffed-in-california-freezer
1150133472,20240107,20240107000000,043,043,04,1,6,3,6,-6.39119684851861,"Iowa, United States",US,USIA,,42.0046,-93.214,IA,20240107000000,https://lancasteronline.com/news/national/trump-downplays-jan-6-on-the-anniversary-of-the-capitol-siege-and-calls-jailed-rioters/article_0a4006f0-5810-5a14-b718-03a1c8c0a49f.html
1150133475,20240107,20240107000000,043,043,04,1,21,3,21,-3.33359886631944,"Pennsylvania, United States",US,USPA,,40.5773,-77.264,PA,20240107000000,https://www.wokv.com/news/national/residents-across/ITEIFN6ICEHLOUJ4HPXIR3ZH44/
1150133484,20240107,20240107000000,051,051,05,1,5,1,4,-1.37987012987013,"New York, United States",US,USNY,,42.1497,-74.9384,NY,20240107000000,https://japantoday.com/category/features/opinions/how-religion-and-politics-will-mix-in-2024-%E2%80%93-three-trends-to-track
1150133486,20240107,20240107000000,090,090,09,2,6,3,6,-2.63786773271371,"Portland International Airport, Oregon, United States",US,USOR,,45.589,-122.593,1131689,20240107000000,https://www.yoursourceone.com/south_sound/columbia_basin/federal-officials-order-grounding-of-boeing-737-max-9-jetliners-after-a-plane-suffers-a/article_51615396-acd5-11ee-a94f-2f6a7b85ed1f.html
1150133488,20240107,20240107000000,112,112,11,3,10,1,10,-6.72268907563025,"Mantua, Pennsylvania, United States",US,USPA,PA101,39.9626,-75.1913,1202862,20240107000000,https://www.fox29.com/news/mother-charged-in-death-of-child-investigators-continue-search-for-childs-body-officials
1150133489,20240107,20240107000000,112,112,11,3,2,1,2,-6.86567164179105,"Tampa, Florida, United States",US,USFL,FL057,27.9475,-82.4584,292005,20240107000000,https://www.wptv.com/fbi-captures-florida-fugitives-accused-of-participating-in-jan-6-riot
1150133491,20240107,20240107000000,112,112,11,3,10,1,10,-3.64741641337386,"Miami, Florida, United States",US,USFL,FL086,25.7743,-80.1937,295004,20240107000000,https://news.yahoo.com/florida-woman-jail-since-2022-230447462.html
1150133493,20240107,20240107000000,112,112,11,3,4,1,4,-7,"Cross County High School, Arkansas, United States",US,USAR,,35.404,-90.8068,61638,20240107000000,https://www.nwaonline.com/news/2024/jan/06/ex-cross-county-high-school-employee-arrested/
1150133494,20240107,20240107000000,112,112,11,3,12,3,12,-5.95370277168714,"Florida, United States",US,USFL,,27.8333,-81.717,FL,20240107000000,https://www.staradvertiser.com/2024/01/06/breaking-news/desantis-haley-battle-to-emerge-in-iowa-as-preferred-trump-alternative/
1150133498,20240107,20240107000000,173,173,17,4,10,1,10,-8.97832817337461,"Lakeland, Washington, United States",US,USWA,WA033,47.3146,-122.278,2413642,20240107000000,https://www.news4jax.com/news/florida/2024/01/06/fbi-arrests-3-in-florida-on-charges-of-assaulting-officers-in-jan-6-insurrection/
1150133499,20240107,20240107000000,173,173,17,4,6,3,6,-8.7127254205366,"Tampa, Florida, United States",US,USFL,FL057,27.9475,-82.4584,292005,20240107000000,https://abcnews.go.com/US/jan-6-fugitives-arrested-florida-ranch/story?id=106156662
1150133501,20240107,20240107000000,173,173,17,4,1,1,1,-6.30105017502917,"North Liberty, Iowa, United States",US,USIA,,41.7492,-91.5979,465945,20240107000000,https://www.wokv.com/news/politics/trump-downplays-jan/ZDJW6YCAXK2JLXJM6DQWPTENHM/
1150133504,20240107,20240107000000,173,173,17,4,5,2,5,-6.36127526630783,"Iowa, United States",US,USIA,,42.0046,-93.214,IA,20240107000000,https://www.news4jax.com/news/politics/2024/01/06/trump-courts-young-voters-in-iowa-before-heading-to-two-rallies-for-the-jan-15-caucuses/
1150133509,20240107,20240107000000,190,190,19,4,1,1,1,-4.12371134020619,"White House, District of Columbia, United States",US,USDC,,38.8951,-77.0364,531871,20240107000000,https://pjmedia.com/graysonbakich/2024/01/06/anarcho-tyranny-perfected-n4925272
1150133513,20240107,20240107000000,046,046,04,1,5,1,5,-8.95522388059701,,,,,,,,20240107000000,https://www.kptv.com/2024/01/06/i-405-i-5-traffic-blocked-by-person-crisis-marquam-bridge-ramp/
1150133514,20240107,20240107000000,080,080,08,2,8,1,5,-5.02092050209205,"San Antonio, Texas, United States",US,USTX,,29.4241,-98.4936,1380951,20240107000000,https://www.kens5.com/article/news/local/street-takeover-san-antonio-arrest/273-f0d702aa-ea16-4977-8c4d-f2c3e50c171a
1150133515,20240107,20240107000000,043,043,04,1,6,1,6,-2.9126213592233,"Iowa, United States",US,USIA,,42.0046,-93.214,IA,20240107000000,https://www.yoursourceone.com/south_sound/news/national_news/trump-courts-young-voters-in-iowa-before-heading-to-two-rallies-for-the-jan-15/article_30da7ae0-47f2-5b30-b056-5a72b4c3feb3.html
1150133516,20240107,20240107000000,043,043,04,1,4,1,4,0.31104199066874,"Massachusetts, United States",US,USMA,,42.2373,-71.5314,MA,20240107000000,https://www.decaturdaily.com/news/morgan_county/decatur/a-lot-is-riding-on-astrobotic-moon-lander-set-for-launch-monday-on-new-ula/article_bd0b334a-529c-5d67-8f66-bb9e6b2179be.html
1150133526,20240107,20240107000000,042,042,04,1,10,1,10,-1.39860139860139,"South Dakota, United States",US,USSD,,44.2853,-99.4632,SD,20240107000000,https://hot1047.com/winter-storm-sioux-falls-010624/
1150133528,20240107,20240107000000,043,043,04,1,10,1,10,-1.61892901618929,Afghanistan,AF,AF,,33,66,AF,20240107000000,https://www.heritage.org/terrorism/report/after-bin-laden-natos-resolve-against-terrorism-must-not-waver
1150133540,20240107,20240107000000,010,010,01,1,5,1,5,-7.5,,,,,,,,20240107000000,https://jamaica-gleaner.com/article/news/20240106/clarendon-policeman-charged-murder
1150133542,20240107,20240107000000,015,015,01,1,10,1,10,-16.1904761904761,"North Dakota, United States",US,USND,,47.5362,-99.793,ND,20240107000000,https://www.kxnet.com/news/top-stories/washburn-farmer-pleads-guilty-to-crop-insurance-fraud/
1150133543,20240107,20240107000000,057,057,05,1,8,1,8,-4.11985018726591,Ukraine,UP,UP,,49,32,UP,20240107000000,https://www.news4jax.com/business/2024/01/06/polish-farmers-suspend-their-blockade-at-the-ukrainian-border-after-a-deal-with-the-government/
1150133546,20240107,20240107000000,010,010,01,1,6,3,6,-4.0506329113924,"Canberra, Australian Capital Territory, Australia",AS,AS01,4940,-35.2833,149.217,-1563952,20240107000000,https://www.adelaidenow.com.au/motoring/motoring-news/wild-brawl-erupts-between-security-and-festival-goers-at-summernats/news-story/933e58c72becaf53472d21dd54540b03?nk=bbb59e1c6d5c331dc34d8e43a95b3036-1704584783
1150133547,20240107,20240107000000,010,010,01,1,10,5,10,2.57629635222025,Japan,JA,JA,,36,138,JA,20240107000000,https://www.mudgeeguardian.com.au/story/8478233/toyota-happy-with-its-slow-selling-granvia-rules-out-new-people-movers/?cs=34616
1150133548,20240107,20240107000000,090,090,09,2,4,1,4,0.23474178403756,Australia,AS,AS,,-25,135,AS,20240107000000,https://www.theadvocate.com.au/story/8477807/mixed-views-on-whether-rogue-lyons-mp-john-tucker-should-resign/
1150133549,20240107,20240107000000,036,036,03,1,2,2,2,-3.04018806064814,"Damascus, Dimashq, Syria",SY,SY13,26324,33.5,36.3,-2541260,20240107000000,https://www.westerlynews.ca/news/show-goes-on-in-vancouver-after-gaza-tensions-scrap-plays-victoria-run-7293466
1150133556,20240107,20240107000000,070,070,07,2,4,1,4,-3.56472795497185,Benin,BN,BN,,9.5,2.25,BN,20240107000000,https://www.legit.ng/education/1572129-cotonou-fake-certificates-minister-reveals-nigerians-rush-benin-republic/
1150133561,20240107,20240107000000,100,100,10,3,2,1,2,-2.71844660194175,Bangladesh,BG,BG,,24,90,BG,20240107000000,https://organiser.org/2024/01/06/214750/bharat/bihar-controversy-erupts-as-jpu-professor-sparks-outrage-with-anti-national-facebook-posts/
1150133582,20240107,20240107000000,010,010,01,1,5,1,5,-1.01010101010101,,,,,,,,20240107000000,https://www.novinite.com/view_news.php?id=223404
1150133610,20240107,20240107000000,010,010,01,1,10,1,10,-3.64963503649635,"Texas, United States",US,USTX,,31.106,-97.6475,TX,20240107000000,https://www.heritage.org/jobs-and-labor/report/why-the-so-called-civil-rights-bill-would-still-mean-quotas
1150133611,20240107,20240107000000,010,010,01,1,7,1,7,-1.81634712411706,"Wyoming, United States",US,USWY,,42.7475,-107.209,WY,20240107000000,https://www.gillettenewsrecord.com/news/wyoming/article_12363c3c-1b72-557b-b65c-1edea0b191e2.html
1150133620,20240107,20240107000000,100,100,10,3,70,7,70,-1.875,,,,,,,,20240107000000,https://www.kidderminstershuttle.co.uk/news/national/24032525.calls-pensions-minister-suspended-office-expenses-reviewed/
1150133623,20240107,20240107000000,012,012,01,1,10,1,10,-1.75925925925926,United States,US,US,,39.828175,-98.5795,US,20240107000000,"https://www.pagosasun.com/premium/stories/rural-jobs-grew-a-percentage-point-in-september-but-the-longer-term-trend-is-still-a-problem,25230"
1150133627,20240107,20240107000000,051,051,05,1,10,1,10,-2.73556231003039,"Alaska, United States",US,USAK,,61.385,-152.268,AK,20240107000000,https://www.news4jax.com/news/local/2024/01/06/local-aviation-expert-weighs-in-on-alaska-airlines-aircrafts-blowout-says-altitude-made-all-the-difference/
1150133628,20240107,20240107000000,020,020,02,1,10,1,10,1.65165165165165,,,,,,,,20240107000000,https://japantoday.com/category/tech/ai-breathes-new-life-into-old-trends-at-ces-gathering
1150133630,20240107,20240107000000,036,036,03,1,3,1,3,2.24032586558045,"Auckland, Auckland, New Zealand",NZ,NZE7,22379,-36.75,174.583,11483124,20240107000000,https://newswire.co.nz/2024/01/air-new-zealand-chooses-all-electric-alia-aircraft-to-spearhead-sustainability-efforts/
1150133632,20240107,20240107000000,160,160,16,4,14,2,14,-5.49943883277216,"Alaska, United States",US,USAK,,61.385,-152.268,AK,20240107000000,https://journalstar.com/news/nation-world/government-politics/boeing-faces-questions-about-737-max-after-blowout-grounds-some-planes/article_bcd845cd-582f-59d9-8389-ad144ca0288f.html
1150133633,20240107,20240107000000,010,010,01,1,8,4,8,0.36199095022624,"Georgia, United States",US,USGA,,32.9866,-83.6487,GA,20240107000000,https://journalstar.com/life-entertainment/nation-world/parenting/wic-helps-moms-and-kids-eat-but-finding-what-you-need-isnt-always-easy/article_01df7cb5-89fa-52fe-92f5-bfc234d790e8.html
1150133645,20240107,20240107000000,172,172,17,4,4,2,4,-2.997002997003,"Vancouver, British Columbia, Canada",CA,CA02,12552,49.25,-123.133,-575268,20240107000000,https://www.newwestrecord.ca/weatherhood-bc/anti-satellite-weapons-tests-could-create-chaos-in-space-warns-bc-study-8059533
1150133646,20240107,20240107000000,020,020,02,1,6,2,6,-5.12820512820513,"Quebec, Quebec, Canada",CA,CA10,12750,47.5,-72,-571850,20240107000000,https://www.newwestrecord.ca/national-news/fifth-death-linked-to-residential-fires-in-quebec-in-two-days-8066561
1150133647,20240107,20240107000000,182,182,18,4,20,2,20,-5.59440559440559,"Montreal, Quebec, Canada",CA,CA10,12713,45.5,-73.5833,-569541,20240107000000,https://www.newwestrecord.ca/national-news/29-year-old-woman-found-dead-in-quebec-apartment-32-year-old-man-arrested-8066416
1150133649,20240107,20240107000000,043,043,04,1,5,1,5,-0.48780487804878,"California, United States",US,USCA,,36.17,-119.746,CA,20240107000000,http://www.jordantimes.com/news/business/alaska-airlines-grounds-boeing-737-9-planes-after-emergency-landing
1150133654,20240107,20240107000000,010,010,01,1,5,1,5,-1.2486992715921,"Shanghai, Shanghai, China",CH,CH23,13243,31.2222,121.458,-1924465,20240107000000,http://www.jordantimes.com/opinion/zhang-jun/has-chinas-economy-peaked
1150133660,20240107,20240107000000,040,040,04,1,6,1,6,1.29672006102212,China,CH,CH,,35,105,CH,20240107000000,https://www.financialexpress.com/lifestyle/on-the-ramen-trail-if-k-dramas-have-made-you-believe-that-the-popular-noodle-broth-is-an-instant-dish-you-might-be-in-for-a-pleasant-surprise/3357581/
1150133666,20240107,20240107000000,010,010,01,1,5,1,5,2.81030444964871,"Kearney Police Department, Nebraska, United States",US,USNE,,40.6964,-99.0801,1875194,20240107000000,https://kearneyhub.com/news/local/free-food-now-available-bi-weekly-without-an-appointment/article_265719cc-abf1-11ee-96bf-7bcb584c240c.html
1150133667,20240107,20240107000000,051,051,05,1,3,1,3,7.54716981132075,Congo,CF,CF,,-1,15,CF,20240107000000,https://www.vanguardngr.com/2024/01/2312765/
1150133668,20240107,20240107000000,010,010,01,1,10,1,10,-8.69565217391304,,,,,,,,20240107000000,https://tucson.com/news/local/crime-courts/tucson-homicide-arrest/article_b52f7fdc-acd6-11ee-a7b0-9fee770f3411.html
1150133676,20240107,20240107000000,040,040,04,1,6,1,6,-3.27455919395466,"Louisiana, United States",US,USLA,,31.1801,-91.8749,LA,20240107000000,https://929nin.com/ixp/252/p/gypsy-rose-blanchard-mom-meet-husband/
1150133680,20240107,20240107000000,090,090,09,2,25,3,25,-5.75853917013125,,,,,,,,20240107000000,https://www.wellingtontimes.com.au/story/8478187/tragedy-as-one-year-old-boy-fatally-struck-by-vehicle-at-burrendong-dam/?cs=112
1150133681,20240107,20240107000000,090,090,09,2,40,4,40,-9.13768806319718,"South Yarra, Victoria, Australia",AS,AS07,5430,-37.8333,144.983,-1601492,20240107000000,https://www.theadvocate.com.au/story/8478231/man-arrested-over-three-stabbings-woman-critical/?cs=9676
1150133682,20240107,20240107000000,090,090,09,2,20,2,20,-3.27868852459017,"Westmead, New South Wales, Australia",AS,AS02,5066,-33.8167,150.983,-1609037,20240107000000,https://www.narrominenewsonline.com.au/story/8478166/man-and-woman-trapped-in-ute-crash-on-mitchell-highway-near-molong/?cs=112
1150133684,20240107,20240107000000,090,090,09,2,5,1,5,-6.59340659340659,"Connecticut, United States",US,USCT,,41.5834,-72.7622,CT,20240107000000,https://www.middletownpress.com/news/article/state-pd-masked-man-stole-7k-td-bank-colchester-18593366.php
1150133691,20240107,20240107000000,173,173,17,4,45,5,45,-9.15990231686385,,,,,,,,20240107000000,https://www.barryanddistrictnews.co.uk/news/national/24032410.two-men-jailed-attempted-supercar-robbery-fake-firearm/
1150133702,20240107,20240107000000,193,193,19,4,20,2,20,-6.34782608695652,,,,,,,,20240107000000,https://www.stltoday.com/news/local/crime-courts/man-killed-on-border-of-west-end-and-hamilton-heights-neighborhoods/article_5f3798c2-ace9-11ee-a50b-0ba215b1c598.html
1150133705,20240107,20240107000000,010,010,01,1,10,1,10,-11.8773946360153,,,,,,,,20240107000000,https://abc11.com/rocky-mount-accidental-shooting-10-year-old-injured-nash-county/14287942/
1150133709,20240107,20240107000000,020,020,02,1,10,1,10,-5.35714285714286,,,,,,,,20240107000000,https://abc11.com/cary-hit-and-run-crash-kildaire-farm-road/14288347/
1150133717,20240107,20240107000000,042,042,04,1,3,1,3,-11.764705882353,"Minnesota, United States",US,USMN,,45.7326,-93.9196,MN,20240107000000,https://www.brainerddispatch.com/news/local/2-found-non-compliant-in-predatory-offender-checks-in-morrison-county
1150133721,20240107,20240107000000,020,020,02,1,10,1,10,9.52380952380952,"Hawaii, United States",US,USHI,,21.1098,-157.531,HI,20240107000000,https://www.kitv.com/news/local/gearing-up-for-the-40th-annual-hawai-i-pacific-health-great-aloha-run-on-february/article_422b9092-acd2-11ee-a7ac-0bac20b110f5.html
1150133722,20240107,20240107000000,0831,083,08,2,10,1,10,-3.53982300884956,"Vancouver, British Columbia, Canada",CA,CA02,12552,49.25,-123.133,-575268,20240107000000,https://www.straight.com/music/on-our-radar-love-makes-everything-better-in-fearbirds-unrelenting-pulled-down-hill-by-dogs
1150133729,20240107,20240107000000,010,010,01,1,10,1,10,-4.52729693741678,,,,,,,,20240107000000,https://news.yahoo.com/san-jose-wants-curb-spike-215138971.html
1150133732,20240107,20240107000000,017,017,01,1,10,1,10,2.44755244755244,"Tokyo, Tokyo, Japan",JA,JA40,36340,35.685,139.751,-246227,20240107000000,https://japantoday.com/category/features/new-products/citizen-celebrates-the-140th-anniversary-of-ueno-station-with-train-themed-watch-designs
1150133737,20240107,20240107000000,051,051,05,1,12,1,12,0.72927789587128,"South Carolina, United States",US,USSC,,33.8191,-80.9066,SC,20240107000000,https://jetradio1400.iheart.com/content/2024-01-06-nikki-haley-accuses-trump-of-acting-like-biden/?pname=www.jetradio1400.com&sc=dnsredirect
1150133741,20240107,20240107000000,128,128,12,3,18,3,18,-0.72253228030386,"New York, United States",US,USNY,,42.1497,-74.9384,NY,20240107000000,https://www.whmi.com/news/national/former-nra-executive-pleads-guilty-fraud-agrees-testify
1150133742,20240107,20240107000000,172,172,17,4,10,1,10,0,"Tokyo, Tokyo, Japan",JA,JA40,36340,35.685,139.751,-246227,20240107000000,https://www.japantimes.co.jp/life/2024/01/07/food-drink/tokyo-snack-bar-nightlife/
1150133745,20240107,20240107000000,050,050,05,1,10,1,10,5.36912751677852,United States,US,US,,39.828175,-98.5795,US,20240107000000,https://www.vaildaily.com/news/eagle-countys-2024-budget-with-nearly-281m-in-expenditures-is-set-for-approval/
1150133761,20240107,20240107000000,0831,083,08,2,14,6,14,-4.23898874682776,"New York, United States",US,USNY,,42.1497,-74.9384,NY,20240107000000,https://www.northcountrypublicradio.org/news/npr/1223298878/former-top-nra-official-admits-wrongdoing-in-new-york-corruption-case
1150133763,20240107,20240107000000,051,051,05,1,10,1,10,5.27777777777778,"Minnesota, United States",US,USMN,,45.7326,-93.9196,MN,20240107000000,https://www.brainerddispatch.com/news/local/central-partnership-accepting-proposals-for-community-projects
1150133765,20240107,20240107000000,0831,083,08,2,36,6,36,-4.20199244750724,"New York, United States",US,USNY,,42.1497,-74.9384,NY,20240107000000,https://www.ualrpublicradio.org/npr-news/2024-01-06/former-top-nra-official-admits-wrongdoing-in-new-york-corruption-case
1150133770,20240107,20240107000000,042,042,04,1,10,1,10,2.85714285714286,Denmark,DA,DA,,56,10,DA,20240107000000,https://timesofindia.indiatimes.com/world/europe/denmark-says-ukraine-to-get-f-16s-in-second-quarter/articleshow/106604737.cms
1150133771,20240107,20240107000000,010,010,01,1,6,1,6,-3.29835082458771,United States,US,US,,39.828175,-98.5795,US,20240107000000,https://www.telegraph.co.uk/news/2024/01/06/harvard-is-now-a-byword-for-the-woke-decline-of-academia/
1150133773,20240107,20240107000000,013,013,01,1,1,1,1,-3.35260115606936,"Maine, United States",US,USME,,44.6074,-69.3977,ME,20240107000000,https://lancasteronline.com/news/national/residents-across-eastern-us-and-new-england-hunker-down-as-snow-ice-freezing-rain-approach/article_cc76fcda-74e3-5edc-93ce-6be4ce70ce89.html
1150133775,20240107,20240107000000,020,020,02,1,3,1,3,-2.41935483870968,India,IN,IN,,20,77,IN,20240107000000,https://eyesonnews.com/the-intriguing-link-between-immune-system-and-human-behavior/
1150133780,20240107,20240107000000,051,051,05,1,10,1,10,2.80373831775701,,,,,,,,20240107000000,https://turnto10.com/news/local/vigil-scheduled-for-smithfield-teacher
1150133793,20240107,20240107000000,020,020,02,1,3,1,3,3.98009950248756,"Louisiana, United States",US,USLA,,31.1801,-91.8749,LA,20240107000000,https://www.stamfordadvocate.com/news/article/interim-president-named-at-grambling-state-while-18593250.php
1150133819,20240107,20240107000000,040,040,04,1,10,3,10,-0.697094505415028,"Rafah, Shamal Sina', Egypt",EG,EG27,16446,31.2878,34.2369,-301033,20240107000000,https://www.mercurynews.com/2024/01/06/cumbersome-process-and-arbitrary-israeli-inspections-slow-aid-delivery-into-gaza-us-senators-say/
1150133826,20240107,20240107000000,010,010,01,1,5,2,5,-3.43657606103958,"London, London, City of, United Kingdom",UK,UKH9,40110,51.5,-0.116667,-2601889,20240107000000,https://www.telegraph.co.uk/news/2024/01/06/palestine-protest-london-police-clash-gaza/
1150133827,20240107,20240107000000,013,013,01,1,4,1,4,-1.931330472103,"London, London, City of, United Kingdom",UK,UKH9,40110,51.5,-0.116667,-2601889,20240107000000,https://www.mmafighting.com/2024/1/6/24028017/ben-rothwell-sends-challenge-bkfc-heavyweight-champ-mick-terrill-hes-basically-holding-onto-my-belt
1150133830,20240107,20240107000000,084,084,08,2,12,2,12,-2.11180124223602,United Kingdom,UK,UK,,54,-4,UK,20240107000000,https://www.westerlynews.ca/entertainment/canadian-director-of-mickey-mouse-horror-film-we-kind-of-shook-the-world-7293478
1150133841,20240107,20240107000000,010,010,01,1,10,1,10,2.89855072463768,Ghana,GH,GH,,8,-2,GH,20240107000000,https://www.vanguardngr.com/2024/01/obi-in-ghana-maps-out-africas-future/
1150133843,20240107,20240107000000,084,084,08,2,4,1,4,-4.55696202531645,"Miami, Florida, United States",US,USFL,FL086,25.7743,-80.1937,295004,20240107000000,https://www.middletownpress.com/news/article/nearly-3-000-pages-of-jeffrey-epstein-documents-18593359.php
1150133844,20240107,20240107000000,010,010,01,1,3,1,3,-4.00641025641026,"Gaza, Israel (general), Israel",IS,IS00,18315,31.4167,34.3333,-797156,20240107000000,https://www.infowars.com/posts/israeli-ministers-melt-down-in-cabinet-meeting-over-militarys-plan-to-probe-oct-7-failures/
1150133851,20240107,20240107000000,010,010,01,1,6,1,6,-1.99095022624434,"Maryland, United States",US,USMD,,39.0724,-76.7902,MD,20240107000000,https://www.dailymail.co.uk/news/article-12928467/Pentagon-slammed-waiting-THREE-DAYS-tell-White-House-Defense-Secretary-Lloyd-Austin-intensive-care-undisclosed-illness-despite-conflicts-raging-Middle-East-Ukraine.html
1150133857,20240107,20240107000000,020,020,02,1,5,1,5,-0.773480662983429,"Maryland, United States",US,USMD,,39.0724,-76.7902,MD,20240107000000,https://www.heritage.org/health-care-reform/report/health-policy-maryland-and-massachusetts-study-contrasts
1150133859,20240107,20240107000000,030,030,03,1,6,1,6,2.75590551181102,"Amman, (JO11), Jordan",JO,JO11,36728,31.95,35.9333,-970362,20240107000000,http://www.jordantimes.com/news/local/jordan-shines-global-hub-mineral-exploration
1150133862,20240107,20240107000000,036,036,03,1,4,1,4,-6.43939393939393,"Jerusalem, Israel (general), Israel",IS,IS00,18315,31.7667,35.2333,-797092,20240107000000,http://www.jordantimes.com/news/local/safadi-blinken-discuss-humanitarian-crisis-gaza-regional-dynamics
1150133874,20240107,20240107000000,051,051,05,1,10,1,10,-6.69291338582677,,,,,,,,20240107000000,https://www.modernghana.com/news/1283723/your-cloddish-effort-to-absolve-bawumia-of-blame.html
1150133876,20240107,20240107000000,051,051,05,1,10,1,10,2.31481481481482,Benin,BN,BN,,9.5,2.25,BN,20240107000000,https://www.vanguardngr.com/2024/01/edo-2024-ikhine-promises-unity-government-visits-apc-leaders/
1150133882,20240107,20240107000000,090,090,09,2,6,1,6,3.98406374501992,"Wadi Araba, Jordan (general), Jordan",JO,JO00,18315,30.4651,35.1772,-970419,20240107000000,http://www.jordantimes.com/news/local/kharabsheh-inspects-mineral-exploration-projects-southern-jordan
1150133883,20240107,20240107000000,111,111,11,3,10,1,10,-3.47222222222222,"Gaza, Israel (general), Israel",IS,IS00,18315,31.4167,34.3333,-797156,20240107000000,https://www.israelnationalnews.com/news/383164
1150133885,20240107,20240107000000,112,112,11,3,10,1,10,-5.88235294117647,,,,,,,,20240107000000,https://news.yahoo.com/2-people-injured-vehicle-rolls-231123421.html
1150133886,20240107,20240107000000,141,141,14,3,10,1,10,5.04587155963302,"Abuja, Abuja Federal Capital Territory, Nigeria",NI,NI11,191147,9.08333,7.53333,-1997013,20240107000000,https://www.vanguardngr.com/2024/01/tinubu-congratulates-dr-congos-tshisekedi-on-re-election/
1150133904,20240107,20240107000000,010,010,01,1,10,1,10,1.37741046831956,Netherlands,NL,NL,,52.5,5.75,NL,20240107000000,https://www.curacaochronicle.com/post/local/governor-of-curacao-holds-back-on-controversial-year-2023/
1150133905,20240107,20240107000000,013,013,01,1,3,1,3,-3.47222222222223,Italy,IT,IT,,42.833333,12.833333,IT,20240107000000,https://www.plenglish.com/news/2024/01/06/italy-reports-38737-covid-19-cases-371-deaths-weekly/
1150133909,20240107,20240107000000,040,040,04,1,1,1,1,-3.27868852459017,"Red Sea, Djibouti (general), Djibouti",DJ,DJ00,25312,19,39.5,-2037160,20240107000000,https://www.fox2detroit.com/news/defense-secretary-lloyd-austin-hospitalized-pentagon
1150133912,20240107,20240107000000,040,040,04,1,2,2,2,-3.37547312322513,Syria,SY,SY,,35,38,SY,20240107000000,https://www.middletownpress.com/news/article/a-pentagon-mystery-why-was-defense-secretary-18593246.php
1150133913,20240107,20240107000000,040,040,04,1,2,2,2,-3.08031536174196,Iraq,IZ,IZ,,33,44,IZ,20240107000000,https://www.wokv.com/news/politics/pentagon-mystery-why/E3Z6Z6W7NXPNG5VKPNBI76XPLY/
1150133922,20240107,20240107000000,190,190,19,4,5,1,5,1.49253731343283,Japan,JA,JA,,36,138,JA,20240107000000,https://japantoday.com/category/picture-of-the-day/fire-department-review
1150133926,20240107,20240107000000,154,154,15,4,10,1,10,-4.88431876606684,"Hokuriku, Japan (general), Japan",JA,JA00,,37,137.5,-229642,20240107000000,https://japantoday.com/category/national/refiling-update4-woman-rescued-5-days-after-japan-quake-as-death-toll-tops-120
1150133936,20240107,20240107000000,0332,033,03,1,1,1,1,-3.40522133938706,Iraq,IZ,IZ,,33,44,IZ,20240107000000,https://www.tribdem.com/news/pentagon-mystery-why-was-defense-secretary-lloyd-austins-hospital-stay-kept-secret-for-days/article_f755a62c-a09d-5f50-9e1d-3b3060e3956d.html
1150133946,20240107,20240107000000,0841,084,08,2,4,1,4,-6.29370629370629,"New York, United States",US,USNY,,42.1497,-74.9384,NY,20240107000000,https://wlea.net/nys-dems-statement-on-j6/
1150133954,20240107,20240107000000,043,043,04,1,6,1,6,1.75438596491228,"Rome, Lazio, Italy",IT,IT07,18350,41.9,12.4833,-126693,20240107000000,https://www.myspiritfm.com/News?view=post&blogid=Catholic%2DNews&articleid=272884
1150133956,20240107,20240107000000,042,042,04,1,1,1,1,3.33333333333333,"Hanoi, Ha N?i, Vietnam, Republic Of",VM,VM44,74067,21.0333,105.85,-3714993,20240107000000,https://en.vietnamplus.vn/vietnam-always-supports-laos-renewal-and-development-official/275887.vnp
1150133988,20240107,20240107000000,017,017,01,1,2,1,2,-0.16949152542373,"Anadolu, Turkey (general), Turkey",TU,TU00,28356,39,35,-735281,20240107000000,https://www.sfgate.com/news/article/orthodox-mark-christmas-but-the-celebration-is-18593585.php
1150134001,20240107,20240107000000,010,010,01,1,15,1,10,-0.3003003003003,,,,,,,,20240107000000,https://www.zerohedge.com/markets/st-louis-mask-mandate-rescinded-less-24-hours-after-woke-health-officials-get-trigger-happy
1150134003,20240107,20240107000000,020,020,02,1,12,2,12,-2.93785310734464,"Georgia, United States",US,USGA,,32.9866,-83.6487,GA,20240107000000,https://www.stltoday.com/news/nation-world/transgender-youth-emergency-psychiatry/article_a30621ac-c417-5d79-84df-f2f224e655f9.html
1150134021,20240107,20240107000000,0841,084,08,2,10,1,10,-6.57698056801196,"Kyiv, Kyyiv, Misto, Ukraine",UP,UP12,28554,50.4333,30.5167,-1044367,20240107000000,https://www.telegraph.co.uk/world-news/2024/01/06/zelensky-warned-over-banning-ukrainian-orthodox-church/
1150134029,20240107,20240107000000,010,010,01,1,6,1,6,1.19402985074627,"Rupa, Rajasthan, India",IN,IN24,17839,25.5667,75.1167,-2109624,20240107000000,https://www.financialexpress.com/lifestyle/on-the-shelf-here-are-some-of-the-books-that-you-may-find-interesting-17/3357511/
1150134034,20240107,20240107000000,050,050,05,1,1,1,1,-0.74280408542247,"Kashmir, Jammu and Kashmir, India",IN,IN12,72809,33.9167,76.6667,-2098229,20240107000000,https://www.financialexpress.com/lifestyle/hindutva-is-good-business-and-h-pop-stars-know-it/3357493/
1150134042,20240107,20240107000000,130,130,13,3,8,1,8,0,Iran,IR,IR,,32,53,IR,20240107000000,https://www.kkoh.com/news/fred-fleitz-to-newsmax-open-question-if-iran-will-enrich-to-weapons-grade/
1150134079,20240107,20240107000000,194,194,19,4,2,2,2,-5.98410602974218,"Jerusalem, Israel (general), Israel",IS,IS00,18315,31.7667,35.2333,-797092,20240107000000,https://www.yakimaherald.com/news/nation_and_world/world/hezbollah-israel-trade-heavy-cross-border-fire-as-blinken-seeks-to-prevent-regional-escalation/article_bc6daad5-fa15-5ac1-b6ea-fb71943ec1e8.html
1150134085,20240107,20240107000000,195,195,19,4,2,2,2,-7.16448032290615,"Gaza, Israel (general), Israel",IS,IS00,18315,31.4167,34.3333,-797156,20240107000000,https://www.thewestonmercury.co.uk/news/national/24032446.lebanon-based-hezbollah-israel-trade-heavy-cross-border-fire/
1150134091,20240107,20240107000000,036,036,03,1,66,7,66,-1.1274320117448,"Istanbul, Istanbul, Turkey",TU,TU34,27897,41.0186,28.9647,-755070,20240107000000,https://www.barryanddistrictnews.co.uk/news/national/24032475.blinken-says-turkey-committed-positive-role-post-war-gaza/
1150134107,20240107,20240107000000,190,190,19,4,8,1,8,-5.26315789473684,"Gaza, Israel (general), Israel",IS,IS00,18315,31.4167,34.3333,-797156,20240107000000,https://news.yahoo.com/palestinian-supporters-press-supes-gaza-223237813.html
1150134152,20240107,20240107000000,061,061,06,2,10,1,10,-8.46560846560846,"Amman, (JO11), Jordan",JO,JO11,36728,31.95,35.9333,-970362,20240107000000,http://www.jordantimes.com/news/local/army-successfully-expels-armed-groups-syrian-territories-following-border-clashed
1150134157,20240107,20240107000000,010,010,01,1,10,1,10,-9.375,"Amman, (JO11), Jordan",JO,JO11,36728,31.95,35.9333,-970362,20240107000000,http://www.jordantimes.com/news/local/jordan-intensifies-efforts-against-armed-smugglers
1150134164,20240107,20240107000000,010,010,01,1,4,2,4,-5.57692307692307,"Shiromaru, Ishikawa, Japan",JA,JA15,34604,37.3333,137.267,-243972,20240107000000,http://www.jordantimes.com/news/world/death-toll-hits-126-japan-quake
1150134165,20240107,20240107000000,018,018,01,1,10,1,10,-5.82278481012658,"Anamizu, Ishikawa, Japan",JA,JA15,34567,37.2333,136.9,-225477,20240107000000,https://www.kidderminstershuttle.co.uk/news/national/24032401.woman-90s-rescued-five-days-deadly-japanese-quake/
1150134166,20240107,20240107000000,018,018,01,1,20,2,20,-2.55709717221062,"Wajima, Ishikawa, Japan",JA,JA15,34605,37.4,136.9,-247783,20240107000000,https://www.huffpost.com/entry/japan-earthquake-ishikawa_n_6599d344e4b0f9f6621cea79
1150134167,20240107,20240107000000,051,051,05,1,10,1,10,2.20125786163522,"Shinagawa-Ku, Tokyo, Japan",JA,JA40,36332,35.6097,139.734,-243508,20240107000000,https://japantoday.com/category/features/food/popular-korean-pizza-shop-allday-pizza-service-opens-first-branch-in-tokyo
1150134191,20240107,20240107000000,015,015,01,1,72,12,72,-4.57010592491602,"Metropolitan Correctional Center, New York, United States",US,USNY,,40.7132,-74.0018,2060431,20240107000000,https://www.staradvertiser.com/2024/01/06/breaking-news/nearly-3000-pages-of-jeffrey-epstein-documents-released/
1150134203,20240107,20240107000000,112,112,11,3,10,1,10,-3.7109375,,,,,,,,20240107000000,https://www.casino.org/news/amazon-rejects-liability-for-social-casino-apps/
1150134206,20240107,20240107000000,173,173,17,4,4,1,4,-1.36518771331058,Pakistan,PK,PK,,30,70,PK,20240107000000,https://theprint.in/world/election-commission-of-pakistan-rejects-pakistan-tehreek-e-insafs-claims/1913596/
1150134214,20240107,20240107000000,060,060,06,2,12,3,12,7.90598290598293,"Colorado, United States",US,USCO,,39.0646,-105.327,CO,20240107000000,https://www.npr.org/2024/01/06/1223331946/supreme-court-will-rule-on-trumps-eligibility-for-state-ballot
1150134227,20240107,20240107000000,120,120,12,3,10,1,10,-4.21052631578948,Cambodia,CB,CB,,13,105,CB,20240107000000,https://www.khmertimeskh.com/501418883/international-rice-prices-up-21-percent-in-2023/
1150134239,20240107,20240107000000,010,010,01,1,20,1,10,0,,,,,,,,20240107000000,https://news.yahoo.com/popular-restaurant-chain-closing-prime-232005161.html
1150134268,20240107,20240107000000,014,014,01,1,5,1,5,1.84331797235023,"Akoko, Nigeria (general), Nigeria",NI,NI00,22926,6.43333,2.73333,-1998786,20240107000000,https://www.vanguardngr.com/2024/01/battle-to-fill-gbaja-tunji-ojo-others-seats-in-nass-heats-up/
1150134274,20240107,20240107000000,0331,033,03,1,10,1,10,-3.23943661971831,"New York, United States",US,USNY,,42.1497,-74.9384,NY,20240107000000,https://wlea.net/omaras-weekly-column-albany-spending/
1150134287,20240107,20240107000000,040,040,04,1,10,1,10,-1.75097276264592,"Indiana, United States",US,USIN,,39.8647,-86.2604,IN,20240107000000,https://www.kokomotribune.com/opinion/editorial-voters-deserve-respect-representation/article_72b75cfc-a216-5e5c-9050-5a0ca35d5b5d.html
1150134297,20240107,20240107000000,010,010,01,1,10,1,10,-0.38910505836576,United States,US,US,,39.828175,-98.5795,US,20240107000000,https://news.yahoo.com/joe-biden-expected-deliver-state-232253823.html
1150134307,20240107,20240107000000,010,010,01,1,2,1,2,-3.11244979919679,"Red Sea, Djibouti (general), Djibouti",DJ,DJ00,25312,19,39.5,-2037160,20240107000000,https://www.news4jax.com/news/politics/2024/01/06/a-pentagon-mystery-why-was-defense-secretary-lloyd-austins-hospital-stay-kept-secret-for-days/
1150134311,20240107,20240107000000,010,010,01,1,2,1,2,5.3156146179402,"Hollywood, California, United States",US,USCA,CA037,34.0983,-118.327,1660757,20240107000000,https://www.yakimaherald.com/news/nation_and_world/entertainment/gwyneth-paltrow-reveals-her-2024-wishlist/article_c9b2f540-91ad-5d5f-89eb-0652c2938b66.html
1150134317,20240107,20240107000000,021,021,02,1,10,1,10,0.835654596100281,"Columbus, Ohio, United States",US,USOH,OH049,39.9612,-82.9988,1080996,20240107000000,https://myfox28columbus.com/news/local/revolving-sushi-experience-soon-to-open-in-columbus-polairs-central-ohio-january-2024-spy-x-family-anime-announcement-japan-japanese-food-intenational-cuisine-food
1150134326,20240107,20240107000000,090,090,09,2,20,2,20,-1.71252927400468,,,,,,,,20240107000000,https://www.wptv.com/news/region-c-palm-beach-county/west-palm-beach/west-palm-beach-fire-department-vehicle-catches-fire
1150134327,20240107,20240107000000,193,193,19,4,10,1,10,6.59630606860159,,,,,,,,20240107000000,https://www.tmz.com/2024/01/06/kanye-west-wish-wife-bianca-censori-happy-29th-birthday-muse-photos/
1150134353,20240107,20240107000000,070,070,07,2,5,5,5,-5.67874040986515,"Iowa, United States",US,USIA,,42.0046,-93.214,IA,20240107000000,https://www.middletownpress.com/news/politics/article/trump-courts-young-voters-in-iowa-before-heading-18593270.php
1150134365,20240107,20240107000000,020,020,02,1,10,1,10,-3.46534653465347,"Khartoum, Al Khartum, Sudan",SU,SU29,37069,15.5881,32.5342,-1987,20240107000000,https://english.news.cn/20240107/683bbcd71a034e1cb32a210ed1a9d6d1/c.html
1150134375,20240107,20240107000000,010,010,01,1,10,1,10,2.1108179419525,United States,US,US,,39.828175,-98.5795,US,20240107000000,https://www.etfdailynews.com/2024/01/06/mastercard-incorporated-nysema-shares-sold-by-grandfield-dodd-llc/
1150134378,20240107,20240107000000,010,010,01,1,20,2,20,-2.31213872832369,"Alaska, United States",US,USAK,,61.385,-152.268,AK,20240107000000,https://www.piquenewsmagazine.com/national-news/canadian-airlines-say-theyre-unaffected-by-boeing-737-9-max-jetliner-incident-8066265
1150134381,20240107,20240107000000,090,090,09,2,20,2,20,-1.07276548975945,"Portland, Oregon, United States",US,USOR,OR051,45.5235,-122.676,1136645,20240107000000,https://www.whmi.com/news/national/faa-temporarily-grounds-certain-boeing-737-max-9s-after-alaska-airlines-emergency-landing
1150134396,20240107,20240107000000,020,020,02,1,10,1,10,12.3165618448637,,,,,,,,20240107000000,https://www.androidpolice.com/best-smart-fans/
1150134406,20240107,20240107000000,186,186,18,4,3,1,3,0,Malaysia,MY,MY,,2.5,112.5,MY,20240107000000,https://www.wmse.org/event/friday-night-freakshow-zoolander/
1150134407,20240107,20240107000000,010,010,01,1,4,1,4,-5.11627906976745,"Lagos, Lagos, Nigeria",NI,NI05,191416,6.45306,3.39583,-2017355,20240107000000,https://www.vanguardngr.com/2024/01/unilag-denies-having-fake-professors/
1150134427,20240107,20240107000000,010,010,01,1,5,1,5,9.35251798561155,New Zealand,NZ,NZ,,-42,174,NZ,20240107000000,https://newswire.co.nz/2024/01/air-new-zealand-tops-global-rankings-as-worlds-safest-airline/
1150134459,20240107,20240107000000,172,172,17,4,10,1,10,-2.3486901535682,North Korea,KN,KN,,40,127,KN,20240107000000,https://japantoday.com/category/features/environment/AI-and-satellite-imagery-map-ocean-activities-that-take-place-out-of-sight-including-fishing-shipping-and-energy-development
1150134464,20240107,20240107000000,018,018,01,1,2,1,2,-3.97350993377484,"Seoul, Soul-t'ukpyolsi, South Korea",KS,KS11,24984,37.5664,127,-716583,20240107000000,https://www.tribdem.com/news/woman-in-her-90s-is-rescued-alive-5-days-after-japans-deadly-earthquake/article_39fbdf1f-88be-5250-877e-d117dfc0aaa5.html
1150134503,20240107,20240107000000,190,190,19,4,6,1,6,-3.71747211895911,"Gaza, Israel (general), Israel",IS,IS00,18315,31.4167,34.3333,-797156,20240107000000,https://www.opednews.com/articles/Palestinian-resistance-can-Iran_Iraq_Israel_Killed-240106-348.html
1150134534,20240107,20240107000000,036,036,03,1,10,1,10,-1.07142857142857,"Michigan, United States",US,USMI,,43.3504,-84.5603,MI,20240107000000,https://www.fox2detroit.com/news/michigan-republicans-set-to-vote-on-chair-karamos-removal-as-she-promises-not-to-accept-result
1150134536,20240107,20240107000000,020,020,02,1,60,6,60,-3.18066157760814,"Kigali, (RW09), Rwanda",RW,RW09,21996,-1.95361,30.0606,-2181358,20240107000000,https://www.keighleynews.co.uk/news/national/24032510.labour-push-pm-publish-papers-reportedly-showing-rwanda-scheme-doubts/
1150134537,20240107,20240107000000,020,020,02,1,10,1,10,0,Rwanda,RW,RW,,-2,30,RW,20240107000000,https://www.standard.co.uk/news/politics/prime-minister-rishi-sunak-rwanda-yvette-cooper-james-cleverly-b1130729.html
1150134561,20240107,20240107000000,011,011,01,1,8,1,8,-5.53505535055351,"Belgorod, Belgorodskaya Oblast', Russia",RS,RS09,25036,50.6107,36.5802,-2883930,20240107000000,https://japantoday.com/category/world/russian-shelling-kills-11-in-donetsk-region-while-ukraine-claims-it-hit-a-crimean-air-base
1150134594,20240107,20240107000000,182,182,18,4,8,1,8,-6.93641618497109,"Peterburg, Sankt-Peterburg, Russia",RS,RS66,25095,59.8944,30.2642,-2996338,20240107000000,https://news.yahoo.com/woman-arrested-hitting-st-petersburg-184520964.html
1150134607,20240107,20240107000000,190,190,19,4,5,1,5,-5.09554140127389,United States,US,US,,39.828175,-98.5795,US,20240107000000,http://www.jordantimes.com/news/region/west-bank-sees-unmatched-surge-israeli-settlements-%C2%A0gaza%C2%A0war-%E2%80%94-ngo
1150134627,20240107,20240107000000,036,036,03,1,4,1,4,-1.59521435692921,"Istanbul, Istanbul, Turkey",TU,TU34,27897,41.0186,28.9647,-755070,20240107000000,https://www.yakimaherald.com/news/nation_and_world/world/blinken-says-turkey-is-committed-to-a-positive-role-in-postwar-gaza-as-he-opens/article_2466b3c2-e4d7-57a4-8ae9-c5b0950f8de2.html
1150134638,20240107,20240107000000,036,036,03,1,2,1,2,-1.0752688172043,"Istanbul, Istanbul, Turkey",TU,TU34,27897,41.0186,28.9647,-755070,20240107000000,https://www.bridportnews.co.uk/news/national/24032475.blinken-says-turkey-committed-positive-role-post-war-gaza/
1150134669,20240107,20240107000000,010,010,01,1,9,3,9,-2.33718084645289,"Portland, Oregon, United States",US,USOR,OR051,45.5235,-122.676,1136645,20240107000000,https://www.thv11.com/article/news/nation-world/alaska-airlines-hole-depressurization-boeing-max-grounding/507-4e5d927a-708f-499e-afb9-c13e861ee654
1150134673,20240107,20240107000000,010,010,01,1,1,1,1,-2.89230769230769,"Chicago, Illinois, United States",US,USIL,IL031,41.85,-87.6501,423587,20240107000000,https://www.mynbc5.com/article/iowa-school-shooting-questions-republicans-presidential-caucus/46299697
1150134690,20240107,20240107000000,012,012,01,1,8,1,8,4.05405405405405,"Makapuu Beach, Hawaii, United States",US,USHI,,21.3144,-157.663,1904821,20240107000000,https://www.staradvertiser.com/2024/01/06/breaking-news/nearly-two-dozen-kayakers-rescued-from-waters-off-makapuu-lighthouse/
1150134697,20240107,20240107000000,015,015,01,1,7,1,7,-1.37741046831956,"New York, United States",US,USNY,,42.1497,-74.9384,NY,20240107000000,https://abcnews.go.com/US/former-nra-executive-joshua-powell-pleads-guilty-fraud/story?id=106159356
1150134698,20240107,20240107000000,015,015,01,1,1,1,1,-3.71900826446281,"Tennessee, United States",US,USTN,,35.7449,-86.7489,TN,20240107000000,https://www.kiimfm.com/news/rascal-flatts-joe-don-rooney-says-hes-finally-healthy-and-ready-for-the-world/
1150134704,20240107,20240107000000,020,020,02,1,10,1,10,1.84615384615385,"Illinois, United States",US,USIL,,40.3363,-89.0022,IL,20240107000000,https://myq1075.com/ixp/462/p/will-illinois-build-wind-farms-on-lakes-in-2024/
1150134708,20240107,20240107000000,020,020,02,1,7,1,7,5.51020408163265,"New Hampshire, United States",US,USNH,,43.4108,-71.5653,NH,20240107000000,https://shark1053.com/looking-for-a-winter-activity-new-hampshire-nonprofit-provides-cheap-or-free-gear-rentals/
1150134709,20240107,20240107000000,020,020,02,1,44,5,44,-2.52156673841737,"New York, United States",US,USNY,,42.1497,-74.9384,NY,20240107000000,https://1045theteam.com/ixp/854/p/winter-preparedness-checklist-for-snowstorms-high-alert-and-travel-advisory-in-ny-state/
1150134712,20240107,20240107000000,0231,023,02,1,10,1,10,0,Iraq,IZ,IZ,,33,44,IZ,20240107000000,https://www.wkyt.com/2024/01/06/louisville-woman-raises-money-veterans-memory-her-son/
1150134720,20240107,20240107000000,0311,031,03,1,10,1,10,-7.55813953488372,"Wisconsin, United States",US,USWI,,44.2563,-89.6385,WI,20240107000000,https://myq1075.com/ixp/722/p/wisconsin-church-donations-stolen/
1150134741,20240107,20240107000000,042,042,04,1,8,2,8,5.0125313283208,"Chicago, Illinois, United States",US,USIL,IL031,41.85,-87.6501,423587,20240107000000,https://929nin.com/ixp/812/p/kanye-west-writes-birthday-message-bianca-censori/
1150134744,20240107,20240107000000,042,042,04,1,4,2,4,-3.35454131877542,"Maine, United States",US,USME,,44.6074,-69.3977,ME,20240107000000,https://www.29news.com/2024/01/06/residents-across-eastern-us-new-england-hunker-down-snow-ice-freezing-rain-approaches/
1150134784,20240107,20240107000000,0874,087,08,2,4,1,4,1.66666666666667,"Hollywood, California, United States",US,USCA,CA037,34.0983,-118.327,1660757,20240107000000,https://comicbookmovie.com/thunderbolts/did-steven-yeun-drop-out-of-marvels-thunderbolts-to-star-in-a-small-indie-romance-film-a208703
1150134808,20240107,20240107000000,172,172,17,4,2,1,2,2.1505376344086,"North Dakota, United States",US,USND,,47.5362,-99.793,ND,20240107000000,https://cool987fm.com/ixp/502/p/josh-duhamel-proving-that-you-cant-take-nd-out-of-the-boy/
1150134813,20240107,20240107000000,173,173,17,4,16,2,16,-4.85933503836317,Chad,CD,CD,,15,19,CD,20240107000000,https://929nin.com/ixp/192/p/these-dangerous-men-are-the-most-wanted-sex-offenders-in-texas/
1150134823,20240107,20240107000000,192,192,19,4,10,1,10,1.52284263959391,"Illinois, United States",US,USIL,,40.3363,-89.0022,IL,20240107000000,https://www.kfvs12.com/2024/01/06/chance-showers-tonight-warmer-by-sunday/
1150134826,20240107,20240107000000,193,193,19,4,4,1,4,-2.90697674418605,"Tunica County, Mississippi, United States",US,USMS,,34.6676,-90.3637,695792,20240107000000,https://news.yahoo.com/ms-man-accused-killing-child-221406448.html
1150134846,20240107,20240107000000,0841,084,08,2,4,1,4,-4.26829268292683,"Arizona, United States",US,USAZ,,33.7712,-111.388,AZ,20240107000000,https://www.vladtv.com/article/302936/qanon-shaman-on-joining-navy-discharged-for-refusing-to-take-anthrax
1150134850,20240107,20240107000000,017,017,01,1,7,1,7,-7.14285714285715,"Iowa, United States",US,USIA,,42.0046,-93.214,IA,20240107000000,https://keyt.com/news/2024/01/06/trump-courts-young-voters-in-iowa-before-heading-to-two-rallies-for-the-jan-15-caucuses/
1150134874,20240107,20240107000000,010,010,01,1,9,3,9,-2.54699312399086,"Portland, Oregon, United States",US,USOR,OR051,45.5235,-122.676,1136645,20240107000000,https://www.kokomotribune.com/news/nation_world_news/federal-officials-order-grounding-of-some-boeing-737-max-9-jetliners-after-plane-suffers-a/article_cff424e9-fcc6-5ee8-a84e-591ab4afdaa0.html
1150134906,20240107,20240107000000,051,051,05,1,10,1,10,6.97674418604651,"Tarpon Springs, Florida, United States",US,USFL,,28.1461,-82.7568,292048,20240107000000,https://keyt.com/news/2024/01/06/floridas-greek-community-celebrates-the-epiphany-with-annual-dive-into-water-to-retrieve-cross/
1150134941,20240107,20240107000000,111,111,11,3,15,3,15,-1.87165775401069,"Washington, District of Columbia, United States",US,USDC,DC001,38.8951,-77.0364,531871,20240107000000,https://fox23maine.com/news/nation-world/biden-to-deliver-annual-state-of-the-union-address-on-march-7-house-speaker-mike-johnson-congress-speech-2024-reelection-campaign-critical-deadline-government-shutdown
1150134962,20240107,20240107000000,017,017,01,1,10,1,10,-6.17283950617283,"Ohio, United States",US,USOH,,40.3736,-82.7755,OH,20240107000000,https://myfox28columbus.com/news/local/protesters-clash-at-ohio-statehouse-on-third-anniversary-of-us-capitol-demonstration-january-6-insurrection-proud-boys-columbus-police-counter-protest
1150134968,20240107,20240107000000,051,051,05,1,5,1,5,-4.46650124069479,"Perry High School, Iowa, United States",US,USIA,,41.8403,-94.0808,1996336,20240107000000,https://news.yahoo.com/trump-says-civil-war-could-230339557.html
1150134992,20240107,20240107000000,045,045,04,1,10,1,10,-0.51813471502591,United States,US,US,,39.828175,-98.5795,US,20240107000000,https://news.yahoo.com/navajo-nation-opposes-plans-send-224611319.html
1150135019,20240107,20240107000000,182,182,18,4,4,1,4,-7.14285714285714,"New Hampshire, United States",US,USNH,,43.4108,-71.5653,NH,20240107000000,https://fox23maine.com/news/local/two-injured-in-saturday-morning-shooting-in-pittsfield-new-hampshire
1150135027,20240107,20240107000000,012,012,01,1,10,1,10,-3.2,"Chicago, Illinois, United States",US,USIL,IL031,41.85,-87.6501,423587,20240107000000,https://www.newser.com/story/344768/obama-suggests-changes-to-bidens-campaign.html
1150135028,20240107,20240107000000,020,020,02,1,5,1,5,1.12,"White House, District of Columbia, United States",US,USDC,,38.8951,-77.0364,531871,20240107000000,https://pjmedia.com/matt-margolis/2024/01/06/barack-obama-hits-panic-button-on-biden-campaign-n4925271
1150135066,20240107,20240107000000,070,070,07,2,6,1,6,-0.8557457212714,"Michigan, United States",US,USMI,,43.3504,-84.5603,MI,20240107000000,https://www.tribdem.com/news/michigan-republicans-vote-to-remove-chair-kristina-karamo-after-she-promises-not-to-accept-result/article_a8c0bfa0-d2aa-5131-b6b7-934814741106.html
1150135424,20230107,20240107001500,043,043,04,1,6,1,6,-3.80147835269272,Taiwan,TW,TW,,24,121,TW,20240107001500,https://www.bostonglobe.com/2024/01/06/metro/crowd-gathers-concord-mark-anniversary-jan-6-2021-attack-capitol/
1150135426,20230107,20240107001500,0831,083,08,2,4,1,4,-9.57642725598528,"Dhaka, Dhaka, Bangladesh",BG,BG81,5778,23.7231,90.4086,-2737683,20240107001500,https://www.crowrivermedia.com/national/news/bangladesh-votes-in-election-without-opposition/article_b7ed8111-5b1c-58d3-861a-f2369dfe3ede.html
1150135430,20230107,20240107001500,042,042,04,1,5,1,5,-1.51133501259446,"Bangkok, Krung Thep Mahanakhon, Thailand",TH,TH40,26423,13.75,100.517,-3250083,20240107001500,https://www.bangkokpost.com/thailand/general/2719401/army-chief-denies-targeting-southern-youths-over-malay-outfits
1150135434,20240106,20240107001500,190,190,19,4,2,1,2,-4.78011472275335,"Gaza, Israel (general), Israel",IS,IS00,18315,31.4167,34.3333,-797156,20240107001500,https://www.gulf-times.com/article/675017/region/boy-survives-gaza-strike-that-kills-family-after-futile-search-for-tents
1150135435,20240107,20240107001500,036,036,03,1,10,1,10,-0.47095761381476,Bermuda,BD,BD,,32.333333,-64.75,BD,20240107001500,https://www.cruisehive.com/adverse-weather-forces-norwegian-cruise-ship-to-drop-overnight-visit/120239
1150135437,20240107,20240107001500,190,190,19,4,10,1,10,5.8968058968059,Japan,JA,JA,,36,138,JA,20240107001500,https://www.siliconera.com/xbox-one-jrpgs-that-shouldnt-be-overlooked/
1150135438,20240107,20240107001500,020,020,02,1,3,1,3,-0.41039671682626,"Rome, Lazio, Italy",IT,IT07,18350,41.9,12.4833,-126693,20240107001500,https://www.catholicworldreport.com/2024/01/06/pope-francis-the-epiphany-invites-us-to-adore-the-lord-and-help-the-poor/
1150135440,20240107,20240107001500,036,036,03,1,10,1,10,4.3859649122807,,,,,,,,20240107001500,https://news.yahoo.com/osceola-sheriff-host-three-kings-232042464.html
1150135441,20240107,20240107001500,042,042,04,1,4,1,4,3.59964881474978,"London, London, City of, United Kingdom",UK,UKH9,40110,51.5,-0.116667,-2601889,20240107001500,https://www.broadwayworld.com/article/Best-Broadway-Shows-in-2024-Whats-Coming-20240106
1150135442,20240107,20240107001500,042,042,04,1,2,1,2,0.45558086560365,"South Yorkshire, United Kingdom (general), United Kingdom",UK,UK00,40130,53.45,-1.25,-2608379,20240107001500,https://www.yorkshirepost.co.uk/news/crime/tim-forber-who-is-the-man-set-to-lead-north-yorkshire-police-4468621
1150135444,20240107,20240107001500,112,112,11,3,10,1,10,-6.46319569120287,"California, United States",US,USCA,,36.17,-119.746,CA,20240107001500,https://www.al.com/news/2024/01/family-of-ashli-babbitt-files-30-million-wrongful-death-lawsuit-over-jan-6-capitol-police-shooting.html
1150135445,20240107,20240107001500,191,191,19,4,10,1,10,-4.5822102425876,,,,,,,,20240107001500,https://www.thestar.com.my/news/nation/2024/01/07/no-invitation-no-entry
1150135446,20240107,20240107001500,173,173,17,4,5,1,5,-9.16230366492147,"Zaman Town, Sindh, Pakistan",PK,PK05,23693,24.8182,67.1357,10526087,20240107001500,https://tribune.com.pk/story/2452410/police-foil-attempt-to-grab-17-acre-land-in-korangi
1150135448,20240107,20240107001500,036,036,03,1,10,1,10,1.44927536231884,"Pontotoc County, Oklahoma, United States",US,USOK,,34.6876,-96.6878,1101849,20240107001500,https://www.theadanews.com/news/local_news/voter-registration-deadline-approaching/article_af811de4-ac0d-11ee-bf18-6fd3cd124d3b.html
1150135449,20240107,20240107001500,060,060,06,2,5,1,5,2.46913580246914,Qatar,QA,QA,,25.5,51.25,QA,20240107001500,https://www.gulf-times.com/article/674980/qatar/ministry-launches-environmental-awareness-camp
1150135450,20240107,20240107001500,036,036,03,1,10,1,10,-0.970873786407767,,,,,,,,20240107001500,https://www.swiowanewssource.com/atlantic/lifestyle/article_19f15548-abe8-11ee-b557-83376a257720.html
1150135451,20240107,20240107001500,040,040,04,1,4,1,4,-3.53477765108324,"Ilford, Redbridge, United Kingdom",UK,UKK8,40110,51.5597,0.070805,-2599348,20240107001500,https://socialistworker.co.uk/news/palestine-protests-six-jan/
1150135453,20240107,20240107001500,043,043,04,1,2,1,2,2.02020202020202,Canada,CA,CA,,60,-96,CA,20240107001500,https://finance.yahoo.com/news/jordan-peterson-tells-dave-ramsey-220020036.html
1150135455,20240107,20240107001500,112,112,11,3,6,1,6,-6.28227194492255,Israel,IS,IS,,31.5,34.75,IS,20240107001500,https://www.bostonglobe.com/2024/01/06/metro/harvard-professors-claudine-gay/
1150135456,20240107,20240107001500,042,042,04,1,5,1,5,0.95602294455067,United Kingdom,UK,UK,,54,-4,UK,20240107001500,https://www.ok.co.uk/tv/bbc-traitors-fans-convinced-show-31823476
1150135457,20240107,20240107001500,190,190,19,4,8,1,4,-1.3215859030837,"Paris, France (general), France",FR,FR00,16282,48.8667,2.33333,-1456928,20240107001500,https://www.ok.co.uk/celebrity-news/jacqueline-jossa-reveals-anxiety-battle-31824393
1150135458,20240107,20240107001500,042,042,04,1,2,1,2,3.89221556886227,"London, London, City of, United Kingdom",UK,UKH9,40110,51.5,-0.116667,-2601889,20240107001500,https://www.kentonline.co.uk/news/national/pierce-brosnan-and-paul-michael-glaser-pay-tribute-to-brother-david-soul-107435/
1150135459,20240107,20240107001500,046,046,04,1,10,1,10,-0.81967213114754,"Skinningrove, Redcar and Cleveland, United Kingdom",UK,UKK9,40123,54.55,-0.883333,-2607940,20240107001500,https://www.yorkshirepost.co.uk/news/politics/councillor-really-sorry-after-claiming-coastal-village-was-most-in-bred-in-britain-4468591
1150135464,20240107,20240107001500,040,040,04,1,1,1,1,-0.1953125,"Hillsborough Castle, Lisburn, United Kingdom",UK,UKS5,40158,54.4333,-6.08333,-2598736,20240107001500,https://roscommonherald.ie/alliance-party-calls-for-uk-government-to-step-in-over-stormont-paralysis_arid-6904.html
1150135465,20240107,20240107001500,036,036,03,1,2,1,2,3.58056265984655,India,IN,IN,,20,77,IN,20240107001500,https://www.aninews.in/news/national/general-news/eligible-reang-families-to-get-rs-25-lakh-for-constructing-houses-union-mos-pratima-bhoumik20240107050018/
1150135466,20240107,20240107001500,043,043,04,1,5,1,5,-6.03015075376884,"Beirut, Beyrouth, Lebanon",LE,LE04,18808,33.8719,35.5097,-801546,20240107001500,https://www.gulf-times.com/article/675018/region/eus-borrell-says-absolutely-necessary-lebanon-not-dragged-into-war
1150135468,20240107,20240107001500,046,046,04,1,10,1,10,1.69491525423729,,,,,,,,20240107001500,https://bubblear.com/boeing-statement-on-737-9-inspections/4958/
1150135469,20240107,20240107001500,042,042,04,1,1,1,1,-8.33333333333333,"Lake Benton, Minnesota, United States",US,USMN,,44.2611,-96.2875,646331,20240107001500,https://quickcountry.com/ixp/669/p/authorities-id-victims-of-murder-suicide-in-tiny-minnesota-town/
1150135470,20240107,20240107001500,042,042,04,1,10,1,10,-10.5990783410138,Angola,AO,AO,,-12.5,18.5,AO,20240107001500,https://www.wfft.com/news/steuben-county-birthday-party-fight-leads-to-three-arrests-one-hospitalization/article_b2f78360-ace8-11ee-8501-8ba6905f2497.html
1150135474,20240107,20240107001500,043,043,04,1,4,1,4,0.55161544523246,"Bihar, Bihar, India",IN,IN34,17615,25.1833,85.5167,-2091797,20240107001500,https://frontline.thehindu.com/columns/from-the-sidelines-saba-naqvi-column-narendra-modi-projected-as-supreme-leader-at-ram-mandir-ahead-of-2024-lok-sabha-election/article67710092.ece
1150135477,20240107,20240107001500,080,080,08,2,2,1,2,-6.91964285714286,"Gaza, Israel (general), Israel",IS,IS00,18315,31.4167,34.3333,-797156,20240107001500,https://www.devdiscourse.com/article/law-order/2768031-wrapup-7-israel-hezbollah-trade-fire-across-lebanon-border-amid-alarm-over-gaza-war-spillover
1150135478,20240107,20240107001500,111,111,11,3,4,1,4,-3.52822580645161,"Los Angeles, California, United States",US,USCA,,34.0522,-118.244,1662328,20240107001500,https://www.theyeshivaworld.com/news/israel-news/2230052/live-blog-israel-at-war-day-93.html
1150135479,20240107,20240107001500,1123,112,11,3,5,1,5,-6.05263157894737,"Gaza, Israel (general), Israel",IS,IS00,18315,31.4167,34.3333,-797156,20240107001500,https://www.bbc.com/news/world-middle-east-67904259
1150135481,20240107,20240107001500,080,080,08,2,10,1,10,0.91743119266055,,,,,,,,20240107001500,https://bulawayo24.com/news/local/238966
1150135486,20240107,20240107001500,046,046,04,1,2,1,2,-4.60593654042989,"Hezbollah, Kerman, Iran",IR,IR29,40994,29.8628,56.8848,10496676,20240107001500,https://www.malaymail.com/news/world/2024/01/07/netanyahu-vows-complete-victory-as-more-bombs-hit-gaza/111031
1150135487,20240107,20240107001500,042,042,04,1,3,1,3,-3.78912685337727,"Hawaii, United States",US,USHI,,21.1098,-157.531,HI,20240107001500,https://rightwingnews.com/media-bias/time-magazine-wants-to-know-why-people-dont-believe-their-deranged-climate-change-meme/
1150135488,20240107,20240107001500,046,046,04,1,5,1,5,0.46082949308755,,,,,,,,20240107001500,https://www.longfordleader.ie/news/national-news/1388850/department-continues-to-engage-on-plan-to-house-asylum-seekers-in-mayo-hotel.html
1150135491,20240107,20240107001500,046,046,04,1,4,1,4,4.25925925925926,Mauritius,MP,MP,,16,146,MP,20240107001500,https://www.ok.co.uk/celebrity-news/bobby-brazier-swims-dolphins-luxury-31824216
1150135492,20240107,20240107001500,190,190,19,4,8,1,8,-2.52918287937743,"Benue, Nigeria (general), Nigeria",NI,NI00,191172,8.31667,8.51667,-2002531,20240107001500,https://www.legit.ng/politics/1572122-bye-election-anxiety-apc-gov-alia-clash-partys-primary-election-benue/
1150135496,20240107,20240107001500,042,042,04,1,10,1,10,2.00927357032458,New Zealand,NZ,NZ,,-42,174,NZ,20240107001500,https://www.adn.com/alaska-life/travel/2024/01/06/new-year-new-travel-opportunities-here-are-some-of-the-best-deals-on-exciting-destinations/
1150135497,20240107,20240107001500,012,012,01,1,10,1,10,-6.25,"Istanbul, Istanbul, Turkey",TU,TU34,27897,41.0186,28.9647,-755070,20240107001500,https://www.portstephensexaminer.com.au/story/8478328/united-arab-emirates-confirms-mass-trial-of-prisoners/
1150135501,20240107,20240107001500,040,040,04,1,6,1,6,-6.03537981269511,"Rafah, Gaza Strip (general), Gaza Strip",GZ,GZ00,16446,31.3292,34.2311,10420173,20240107001500,https://www.northwestmoinfo.com/syndicated-article/?id=1542445
1150135508,20240107,20240107001500,040,040,04,1,6,1,6,-3.99484536082474,"Athens, AttikíR, Greece",GR,GR35,16716,37.9833,23.7333,-814876,20240107001500,https://www.malaymail.com/news/world/2024/01/07/blinken-says-he-wants-to-avoid-escalation-on-middle-east-tour/111034
1150135509,20240107,20240107001500,040,040,04,1,6,1,6,-2.94784580498866,"Ankara, Ankara, Turkey",TU,TU68,27516,39.9272,32.8644,-735338,20240107001500,https://www.ndtv.com/world-news/israel-hamas-war-need-to-prevent-conflict-from-spreading-antony-blinken-holds-talks-with-turkeys-recep-tayyip-erdogan-during-middle-east-tour-4814427
1150135510,20240107,20240107001500,040,040,04,1,3,1,3,4.02298850574713,"Bucharest, Bucuresti, Romania",RO,RO10,25006,44.4333,26.1,-1153951,20240107001500,https://www.thediplomat.ro/2020/05/08/maria-manicuta-anre-we-are-analyzing-the-idea-of-dynamic-tarrifs-for-distribution-operators/
1150135511,20240107,20240107001500,190,190,19,4,2,1,2,-5.37634408602151,Ukraine,UP,UP,,49,32,UP,20240107001500,https://www.pbs.org/newshour/world/russian-shelling-kills-11-in-donetsk-region-ukraine-says-it-hit-a-military-airbase-in-crimea
1150135515,20240107,20240107001500,036,036,03,1,8,1,8,2.79503105590062,"Ubon Ratchathani, Ubon Ratchathani, Thailand",TH,TH75,27145,15.2384,104.849,-3256831,20240107001500,https://www.bangkokpost.com/thailand/general/2719526/german-president-to-visit-this-month-to-meet-srettha-hm-king
1150135517,20240107,20240107001500,190,190,19,4,5,1,5,-4.65116279069767,"Iowa, United States",US,USIA,,42.0046,-93.214,IA,20240107001500,https://news.yahoo.com/perry-high-school-shooting-victim-234000407.html
1150135518,20240107,20240107001500,020,020,02,1,2,1,2,-5.25291828793774,Ukraine,UP,UP,,49,32,UP,20240107001500,https://www.spokesman.com/stories/2024/jan/06/biden-trump-show-reality-at-stake-in-clash-over-ja/
1150135520,20240107,20240107001500,020,020,02,1,5,1,5,-1.37362637362638,Puerto Rico,RQ,RQ,,18.2359,-66.4838,RQ,20240107001500,https://news.yahoo.com/never-scanned-ticket-sixteen-old-233000213.html
1150135521,20240107,20240107001500,020,020,02,1,5,1,5,1.96560196560197,"Wisconsin, United States",US,USWI,,44.2563,-89.6385,WI,20240107001500,https://krna.com/wisconsin-dive-bars-disgusting-shot/
1150135523,20240107,20240107001500,036,036,03,1,8,1,8,7.09219858156028,"Hollywood, California, United States",US,USCA,CA037,34.0983,-118.327,1660757,20240107001500,https://www.thfire.com/entertainment/hollywood/oscar-nomination-ballots-sent-to-voters-9396
1150135524,20240107,20240107001500,036,036,03,1,4,1,4,0.96153846153846,"Chicago, Illinois, United States",US,USIL,IL031,41.85,-87.6501,423587,20240107001500,https://www.northwestmoinfo.com/syndicated-article/?id=1542457
1150135525,20240107,20240107001500,036,036,03,1,4,1,4,-9.16030534351145,"Dallas, Texas, United States",US,USTX,TX113,32.7831,-96.8067,1380944,20240107001500,https://foxsanantonio.com/newsletter-daily/emergency-landing-in-texas-after-passenger-assaults-flight-attendant-and-officer-texas-travel-flying-airplane-aircraft-airport
1150135527,20240107,20240107001500,036,036,03,1,10,1,10,0.30674846625767,"Texas, United States",US,USTX,,31.106,-97.6475,TX,20240107001500,https://klaw.com/ixp/178/p/texas-number-1-state-moving/
1150135529,20240107,20240107001500,042,042,04,1,1,1,1,-4.30769230769231,"Kyiv, Kyyiv, Misto, Ukraine",UP,UP12,28554,50.4333,30.5167,-1044367,20240107001500,https://www.bostonglobe.com/2024/01/06/world/ukraines-patriot-defenses-work-shuddering-booms-bursts-light/
1150135535,20240107,20240107001500,042,042,04,1,4,1,4,-2.36966824644549,"Kissimmee, Florida, United States",US,USFL,FL097,28.292,-81.4076,285145,20240107001500,https://gazette.com/news/wex/mtg-boasts-after-securing-second-location-for-jan-6-book-event-despite-late-cancellation/article_2152e2ec-a199-5c32-8402-0252f29fccf3.html
1150135538,20240107,20240107001500,042,042,04,1,2,1,2,-0.416666666666666,"Georgia, United States",US,USGA,,32.9866,-83.6487,GA,20240107001500,https://www.henryherald.com/fieldlevel/devin-mcglocktons-30-lead-boston-college-to-road-win-at-georgia-tech/article_99c475ed-c1bc-5c62-9385-6aa6c3587dac.html
1150135541,20240107,20240107001500,042,042,04,1,2,1,2,2.78637770897833,"West Orange, New Jersey, United States",US,USNJ,,40.7987,-74.239,881721,20240107001500,https://wobm.com/did-you-know-the-very-first-movie-ever-made-was-in-new-jersey/
1150135545,20240107,20240107001500,043,043,04,1,5,1,5,-2.27272727272727,"Richmond, Virginia, United States",US,USVA,VA760,37.5538,-77.4603,1499957,20240107001500,https://richmond.com/news/local/weather/richmond-weather-rain-snow-sleet/article_5e97c822-ac2d-11ee-8cb7-df06d88c6a0b.html
1150135546,20240107,20240107001500,043,043,04,1,2,1,2,-7.43494423791822,"Winston County, Alabama, United States",US,USAL,,34.1501,-87.3667,161592,20240107001500,https://www.al.com/news/2024/01/mother-now-charged-with-endangering-alabama-infant-who-died-father-faces-8-new-charges.html
1150135547,20240107,20240107001500,046,046,04,1,1,1,1,-4.1726618705036,"Gaza, Israel (general), Israel",IS,IS00,18315,31.4167,34.3333,-797156,20240107001500,https://www.scmp.com/news/world/middle-east/article/3247546/israel-gaza-war-antony-blinken-says-he-wants-avoid-escalation-middle-east-tour
1150135551,20240107,20240107001500,100,100,10,3,10,1,10,2.23880597014926,"Florida, United States",US,USFL,,27.8333,-81.717,FL,20240107001500,https://news.yahoo.com/saturday-heavy-rain-brings-cooler-233552017.html
1150135552,20240107,20240107001500,111,111,11,3,4,1,4,-3.15398886827458,"Valley Forge, Pennsylvania, United States",US,USPA,,39.9845,-76.7075,1190297,20240107001500,https://gazette.com/news/us-world/harris-marks-jan-6-calls-on-black-south-carolina-voters-to-defend-rights/article_42dd14fa-63ff-57a3-980b-2470568efc71.html
1150135554,20240107,20240107001500,130,130,13,3,1,1,1,-2.42326332794831,"Washington, District of Columbia, United States",US,USDC,DC001,38.8951,-77.0364,531871,20240107001500,https://arkvalleyvoice.com/biden-declares-its-democracy-on-the-ballot/
1150135557,20240107,20240107001500,173,173,17,4,10,1,10,-8.69565217391304,"Lakeland, Florida, United States",US,USFL,FL105,28.0395,-81.9498,294459,20240107001500,https://www.bostonglobe.com/2024/01/06/nation/fbi-arrests-florida-jan-6-insurrection-capitol-attack/
1150135558,20240107,20240107001500,173,173,17,4,1,1,1,-2.76497695852535,"New Jersey, United States",US,USNJ,,40.314,-74.5089,NJ,20240107001500,https://www.fox5ny.com/news/funeral-held-for-imam-shot-killed-outside-newark-nj-mosque
1150135559,20240107,20240107001500,173,173,17,4,2,1,2,-6.51387213510254,"North Liberty, Iowa, United States",US,USIA,,41.7492,-91.5979,465945,20240107001500,https://triblive.com/news/politics-election/trump-downplays-jan-6-on-the-anniversary-of-the-capitol-siege-and-calls-jailed-rioters-hostages/
1150135564,20240107,20240107001500,130,130,13,3,6,1,6,-1.08108108108108,"Canberra, Australian Capital Territory, Australia",AS,AS01,4940,-35.2833,149.217,-1563952,20240107001500,https://www.theaustralian.com.au/breaking-news/farmers-threaten-to-walk-away-as-coles-woolworths-turn-1bn-profits/news-story/28f34af3c44e5b2b316ab0073f6dbd3b?nk=8b25609f4ca49b95eb3d1d4c2ac07ee9-1704585702
1150135565,20240107,20240107001500,010,010,01,1,3,1,3,-1.49094781682641,"Dubai, Dubayy, United Arab Emirates",AE,AE03,28575,25.2522,55.28,-782831,20240107001500,https://www.malaymail.com/news/malaysia/2024/01/07/from-dubai-move-to-chow-kit-move-experts-say-toppling-bid-highlights-unpatched-loopholes-in-anti-hopping-law/110422
1150135567,20240107,20240107001500,010,010,01,1,2,1,2,-5.2790346907994,"Cape York, Queensland, Australia",AS,AS04,154696,-10.7167,142.467,-1564109,20240107001500,https://www.northweststar.com.au/story/8478226/weather-bureau-doing-its-best-amid-chaos-expert-says/
1150135568,20240107,20240107001500,020,020,02,1,8,1,8,-1.69438669438669,"Canberra, Australian Capital Territory, Australia",AS,AS01,4940,-35.2833,149.217,-1563952,20240107001500,https://www.theaustralian.com.au/breaking-news/rain-to-lash-australias-eastern-states-for-weeks/news-story/13ad668a54ce9d19d74d3fbd8fbbe420?nk=f81e990aad6a9ef869fdda4ee1ef3cd5-1704585691
1150135569,20240107,20240107001500,020,020,02,1,2,1,2,0.53003533568905,"Sydney, New South Wales, Australia",AS,AS02,154637,-33.8833,151.217,-1603135,20240107001500,https://screenrant.com/the-bear-season-3-returning-roots-kitchen-best-outing/
1150135584,20240107,20240107001500,0831,083,08,2,10,1,10,-3.79746835443038,Bangladesh,BG,BG,,24,90,BG,20240107001500,https://www.ndtv.com/world-news/bangladesh-general-elections-main-bangladesh-opposition-party-bnp-boycotts-election-poll-body-chief-reacts-4813637
1150135585,20240107,20240107001500,112,112,11,3,1,1,1,-2.97709923664122,"New York, United States",US,USNY,,42.1497,-74.9384,NY,20240107001500,https://www.theyeshivaworld.com/news/general/2251638/nra-chief-one-of-the-most-powerful-figures-in-us-gun-policy-says-hes-resigning-days-before-trial.html
1150135587,20240107,20240107001500,173,173,17,4,3,1,3,-8.91089108910891,Belarus,BO,BO,,53,28,BO,20240107001500,https://www.theyeshivaworld.com/news/general/2251645/hundreds-of-convictions-but-a-major-mystery-is-still-unsolved-3-years-after-the-jan-6-capitol-riot.html
1150135592,20240107,20240107001500,010,010,01,1,10,1,10,1.06157112526539,Malaysia,MY,MY,,2.5,112.5,MY,20240107001500,https://www.thestar.com.my/opinion/columnists/the-star-says/2024/01/07/balancing-between-datas-potential-and-its-security
1150135594,20240107,20240107001500,014,014,01,1,20,1,10,-1.39616055846422,,,,,,,,20240107001500,https://www.yorkshirepost.co.uk/news/politics/landlord-considering-legal-action-over-eye-watering-ps1000-licensing-fee-proposal-4468589
1150135595,20240107,20240107001500,020,020,02,1,30,2,20,-1.11909762278029,,,,,,,,20240107001500,https://investorplace.com/2024/01/is-quantumscape-qs-stock-primed-for-a-short-squeeze-pop-in-2024/
1150135596,20240107,20240107001500,036,036,03,1,10,1,10,-1.33333333333333,United States,US,US,,39.828175,-98.5795,US,20240107001500,https://rightwingnews.com/civil-rights/bill-maher-real-black-men-are-thugs/
1150135597,20240107,20240107001500,071,071,07,2,10,1,10,1.38312586445366,,,,,,,,20240107001500,https://finance.yahoo.com/news/highfield-resources-limiteds-asx-hfr-221606041.html
1150135604,20240107,20240107001500,061,061,06,2,2,1,2,-3.74149659863946,"Odesa, Odes'ka Oblast, Ukraine",UP,UP17,28558,46.4639,30.7386,-1049092,20240107001500,https://www.forbes.com/sites/davidaxe/2024/01/06/the-ukrainian-navy-blows-up-as-much-russian-naval-tonnage-as-russian-shipyards-manage-to-build/
1150135608,20240107,20240107001500,020,020,02,1,4,1,4,-1.81818181818182,"Ottawa, Ontario, Canada",CA,CA08,12755,45.4167,-75.7,-570760,20240107001500,https://www.theepochtimes.com/world/court-tells-ottawa-police-to-return-phones-after-175-million-attempts-to-crack-passcode-5559894
1150135611,20240107,20240107001500,090,090,09,2,10,1,10,-0.25542784163474,"Rome, Lazio, Italy",IT,IT07,18350,41.9,12.4833,-126693,20240107001500,https://www.theepochtimes.com/bright/novitiate-sea-change-in-the-catholic-church-5556408
1150135612,20240107,20240107001500,010,010,01,1,4,1,4,-6.41627543035994,"Utah, United States",US,USUT,,40.1135,-111.854,UT,20240107001500,https://nypost.com/2024/01/06/news/murdered-husband-of-utah-childrens-book-author-had-wifes-meds-in-his-body-when-he-died-court-docs/
1150135613,20240107,20240107001500,017,017,01,1,5,1,5,0,,,,,,,,20240107001500,https://www.mymcmedia.org/3-years-later-members-of-county-police-discuss-their-role-in-defending-the-capitol-on-january-6/
1150135615,20240107,20240107001500,033,033,03,1,5,1,5,-1.3986013986014,"Bangkok, Krung Thep Mahanakhon, Thailand",TH,TH40,26423,13.75,100.517,-3250083,20240107001500,https://www.bangkokpost.com/thailand/general/2719421/cholnan-signs-bill-banning-recreational-use-of-weed
1150135620,20240107,20240107001500,051,051,05,1,10,1,10,-7.57363253856943,"Bangkok, Krung Thep Mahanakhon, Thailand",TH,TH40,26423,13.75,100.517,-3250083,20240107001500,https://www.bangkokpost.com/opinion/opinion/2719616/impunity-fuels-school-violence
1150135626,20240107,20240107001500,180,180,18,4,10,1,10,-8.21917808219178,,,,,,,,20240107001500,https://news.yahoo.com/milwaukee-arson-investigation-trash-set-193113426.html
1150135631,20240107,20240107001500,010,010,01,1,5,1,5,-1.44927536231884,"Bangkok, Krung Thep Mahanakhon, Thailand",TH,TH40,26423,13.75,100.517,-3250083,20240107001500,https://www.bangkokpost.com/thailand/politics/2719363/corrections-chief-to-break-silence-on-thaksin
1150135633,20240107,20240107001500,042,042,04,1,10,1,10,-12.3655913978495,"Dasht-E-Barchi, Kabol, Afghanistan",AF,AF13,3585,34.5014,69.0794,451268,20240107001500,https://www.al-monitor.com/originals/2024/01/claims-bus-blast-killed-two-kabul
1150135636,20240107,20240107001500,173,173,17,4,6,1,6,-6.38063806380638,"Jiyan, Fars, Iran",IR,IR07,41099,30.0336,52.2811,-3067975,20240107001500,https://www.jpost.com/middle-east/iran-news/article-781118
1150135637,20240107,20240107001500,120,120,12,3,8,1,8,-5.70603105814374,"Borno State, Borno, Nigeria",NI,NI27,191073,11.5,13,-2003010,20240107001500,https://newtelegraphng.com/insecurity-battling-consequences-of-ignored-distress-calls/
1150135645,20240107,20240107001500,020,020,02,1,4,1,4,-7.99584631360332,"Valley Forge, Pennsylvania, United States",US,USPA,,39.9845,-76.7075,1190297,20240107001500,https://www.theepochtimes.com/us/fbi-arrests-3-january-6-fugitives-on-3rd-anniversary-of-capitol-breach-5559883
1150135649,20240107,20240107001500,173,173,17,4,10,5,10,-6.77966101694915,"Davidson County, Tennessee, United States",US,USTN,,36.1501,-86.7833,1639737,20240107001500,https://foxsanantonio.com/news/nation-world/tennessee-man-kills-wife-on-new-years-day-with-hammer-buries-her-body-police-say-joseph-glynn-jackie-glynn-green-hills-metro-nashville-police-criminal-homicide
1150135656,20240107,20240107001500,071,071,07,2,10,1,10,4.89236790606654,,,,,,,,20240107001500,https://www.duncanbanner.com/community/ctac-to-host-steven-dixon-fundraising-exhibit-proceeds-will-benefit-second-chance-ranch/article_60caa158-ac1b-11ee-95ae-9b28a4da5117.html
1150135659,20240107,20240107001500,190,190,19,4,2,1,2,-0.72173215717722,"Rome, Lazio, Italy",IT,IT07,18350,41.9,12.4833,-126693,20240107001500,https://www.amusingplanet.com/2021/01/why-julius-caesar-built-bridge-over.html
1150135665,20240107,20240107001500,073,073,07,2,10,1,10,3.74331550802139,Romania,RO,RO,,46,25,RO,20240107001500,https://www.thediplomat.ro/2020/04/10/facebook-says-new-community-help-feature-is-now-available-in-romania-too/
1150135680,20240107,20240107001500,013,013,01,1,3,1,3,-2.84974093264248,"New York, United States",US,USNY,,42.1497,-74.9384,NY,20240107001500,https://www.therepublic.com/2024/01/06/residents-across-eastern-u-s-and-new-england-hunker-down-as-snow-ice-freezing-rain-approaches/
1150135690,20240107,20240107001500,120,120,12,3,5,1,5,-8.49514563106798,"Washington, District of Columbia, United States",US,USDC,DC001,38.8951,-77.0364,531871,20240107001500,https://www.theadanews.com/cnhi_network/the-punch-of-jan-6-lie/article_6d1a5d71-26cc-5d4d-b205-1c51783b65c3.html
1150135699,20240107,20240107001500,044,044,04,1,10,1,10,2.7027027027027,"Doha, Ad Daw?ah, Qatar",QA,QA01,25307,25.2867,51.5333,-785169,20240107001500,https://www.gulf-times.com/article/674989/qatar/key-issues-discussed-at-intl-conference-on-hydrogen-production-at-hbku
1150135702,20240107,20240107001500,071,071,07,2,7,1,7,0,"Bucharest, Bucuresti, Romania",RO,RO10,25006,44.4333,26.1,-1153951,20240107001500,https://www.thediplomat.ro/2020/05/19/around-270000-companies-from-bucharest-and-ilfov-could-benefit-from-european-funds-says-conaf/
1150135703,20240107,20240107001500,013,013,01,1,2,1,2,0.41753653444677,Belgium,BE,BE,,50.833333,4,BE,20240107001500,https://www.politico.eu/article/charles-michel-to-run-for-eu-election-2024-top-jobs-viktor-orban/
1150135705,20240107,20240107001500,012,012,01,1,2,1,2,-4.39698492462312,"Red Sea, Djibouti (general), Djibouti",DJ,DJ00,25312,19,39.5,-2037160,20240107001500,https://www.eagletribune.com/region/blinken-says-turkey-ready-for-positive-role-on-israel-hamas-war/article_0d616b94-02e5-56fe-9dde-d684a9cff248.html
1150135708,20240107,20240107001500,040,040,04,1,10,1,10,-7.5,"Tehran, Tehran, Iran",IR,IR26,41130,35.75,51.5148,10074674,20240107001500,https://www.devdiscourse.com/article/law-order/2768028-france-and-iran-discuss-risks-to-mideast-stability
1150135712,20240107,20240107001500,010,010,01,1,2,1,2,-8.33333333333333,United Kingdom,UK,UK,,54,-4,UK,20240107001500,https://www.thisiswiltshire.co.uk/news/24032414.itv-series-brings-50-new-victims-post-office-scandal/
